seguridad.fecha_hecho;seguridad.cantidad;seguridad.latitud;seguridad.longitud;seguridad.sexo;seguridad.edad;seguridad.estado_civil;seguridad.grupo_actor;seguridad.actividad_delictiva;seguridad.parentesco;seguridad.ocupacion;seguridad.discapacidad;seguridad.grupo_especial;seguridad.medio_transporte;seguridad.nivel_academico;seguridad.testigo;seguridad.conducta;seguridad.modalidad;seguridad.caracterizacion;seguridad.conducta_especial;seguridad.arma_medio;seguridad.articulo_penal;seguridad.categoria_penal;seguridad.nombre_barrio;seguridad.codigo_barrio;seguridad.codigo_comuna;seguridad.lugar;seguridad.sede_receptora;seguridad.bien;seguridad.categoria_bien;seguridad.grupo_bien;seguridad.modelo;seguridad.color;seguridad.permiso;seguridad.unidad_medida
2007-02-26 21:00:00;1.0;6.28655944000;-75.54329477000;Mujer;47;Unión marital de hecho;Sin dato;Sin dato;Sin dato;Oficios varios;Sin dato;Sin dato;Sin dato;Primaria;1;reincidencia violencia intrafamiliar;Física;Sin dato;Sin dato;Sin dato;Sin dato;Sin dato;El Compromiso;#0108;1;Residencia;Comisaría 1 - comuna uno;Sin dato;Sin dato;Sin dato;Sin dato;Sin dato;Sin dato;Sin dato
2007-02-26 21:00:00;1.0;6.28655944000;-75.54329477000;Hombre;18;Soltero(a);Sin dato;Sin dato;Sin dato;Estudiante;Sin dato;Sin dato;Sin dato;Bachillerato;1;reincidencia violencia intrafamiliar;Física;Sin dato;Sin dato;Sin dato;Sin dato;Sin dato;El Compromiso;#0108;1;Residencia;Comisaría 1 - comuna uno;Sin dato;Sin dato;Sin dato;Sin dato;Sin dato;Sin dato;Sin dato
2007-02-26 21:00:00;1.0;6.28655944000;-75.54329477000;Mujer;18;Soltero(a);Sin dato;Sin dato;Sin dato;Estudiante;Sin dato;Sin dato;Sin dato;Bachillerato;1;reincidencia violencia intrafamiliar;Física;Sin dato;Sin dato;Sin dato;Sin dato;Sin dato;El Compromiso;#0108;1;Residencia;Comisaría 1 - comuna uno;Sin dato;Sin dato;Sin dato;Sin dato;Sin dato;Sin dato;Sin dato
2007-11-16 08:00:00;1.0;6.23117772000;-75.55246545000;Mujer;53;Casado(a);Sin dato;Sin dato;Sin dato;Ama de casa;Sin dato;Sin dato;Sin dato;Primaria;1;reincidencia violencia intrafamiliar;Daño psicológico;Sin dato;Sin dato;Sin dato;Sin dato;Sin dato;Cataluña;#0909;9;Residencia;Comisaría 9 - bueno aires;Sin dato;Sin dato;Sin dato;Sin dato;Sin dato;Sin dato;Sin dato
2012-08-01 07:00:00;1.0;6.21371000000;-75.59979600000;Mujer;72;Viudo(a);Sin dato;Sin dato;Sin dato;Ama de casa;Sin dato;Sin dato;Sin dato;Primaria;0;reincidencia violencia intrafamiliar;Maltrato;Sin dato;Sin dato;Sin dato;Sin dato;Sin dato;El Rincón;#1610;16;Residencia;Comisaría 16 - belén;Sin dato;Sin dato;Sin dato;Sin dato;Sin dato;Sin dato;Sin dato
2013-01-25 16:00:00;1.0;6.30222500000;-75.54536700000;Mujer;30;Unión marital de hecho;Sin dato;Sin dato;Sin dato;Ama de casa;Sin dato;Sin dato;Sin dato;Primaria;1;reincidencia violencia intrafamiliar;Daño psicológico;Sin dato;Sin dato;Sin dato;Sin dato;Sin dato;Popular;#0103;1;Residencia;Permanencia 1 el bosque;Sin dato;Sin dato;Sin dato;Sin dato;Sin dato;Sin dato;Sin dato
2013-02-22 20:00:00;1.0;NaN;NaN;Mujer;30;Unión marital de hecho;Sin dato;Sin dato;Sin dato;Ama de casa;Sin dato;Sin dato;Sin dato;Primaria;0;reincidencia violencia intrafamiliar;Daño psicológico;Sin dato;Sin dato;Sin dato;Sin dato;Sin dato;Sin dato 70 Altavista;SIN DATO 70 ALTAVISTA;70;Residencia;Comisaría altavista;Sin dato;Sin dato;Sin dato;Sin dato;Sin dato;Sin dato;Sin dato
2013-02-25 09:00:00;1.0;6.27253100000;-75.56532500000;Mujer;35;Unión marital de hecho;Sin dato;Sin dato;Sin dato;Sin dato;Sin dato;Sin dato;Sin dato;Bachillerato;1;reincidencia violencia intrafamiliar;Daño psicológico;Sin dato;Sin dato;Sin dato;Sin dato;Sin dato;Moravia;#0405;4;Residencia;Comisaría 4 - campo valdés;Sin dato;Sin dato;Sin dato;Sin dato;Sin dato;Sin dato;Sin dato
2013-04-01 14:00:00;1.0;6.28739900000;-75.55643300000;Mujer;32;Unión marital de hecho;Sin dato;Sin dato;Sin dato;Sin dato;Sin dato;Sin dato;Sin dato;Primaria;0;reincidencia violencia intrafamiliar;Daño psicológico;Sin dato;Sin dato;Sin dato;Sin dato;Sin dato;Berlin;#0401;4;Residencia;Comisaría 4 - campo valdés;Sin dato;Sin dato;Sin dato;Sin dato;Sin dato;Sin dato;Sin dato
2013-04-18 22:00:00;1.0;NaN;NaN;Mujer;25;Soltero(a);Sin dato;Sin dato;Sin dato;Sin dato;Sin dato;Sin dato;Sin dato;Sin dato;1;reincidencia violencia intrafamiliar;Daño psicológico;Sin dato;Sin dato;Sin dato;Sin dato;Sin dato;Belén;#1603;16;Puesto de trabajo;Comisaría 16 - belén;Sin dato;Sin dato;Sin dato;Sin dato;Sin dato;Sin dato;Sin dato
2013-08-09 18:00:00;1.0;6.25070300000;-75.55686400000;Hombre;44;Soltero(a);Sin dato;Sin dato;Sin dato;Conductor;Sin dato;Sin dato;Sin dato;Bachillerato;1;reincidencia violencia intrafamiliar;Otra;Sin dato;Sin dato;Sin dato;Sin dato;Sin dato;Los Ángeles;#1017;10;Residencia;Comisaría 10 - centro;Sin dato;Sin dato;Sin dato;Sin dato;Sin dato;Sin dato;Sin dato
2013-09-25 20:00:00;1.0;6.28992800000;-75.59178400000;Mujer;23;Unión marital de hecho;Sin dato;Sin dato;Sin dato;Sin dato;Sin dato;Sin dato;Sin dato;Bachillerato;0;reincidencia violencia intrafamiliar;Daño psicológico;Sin dato;Sin dato;Sin dato;Sin dato;Sin dato;Aures No.2;#0712;7;Residencia;Comisaría 7 - comuna siete;Sin dato;Sin dato;Sin dato;Sin dato;Sin dato;Sin dato;Sin dato
2013-09-30 13:00:00;1.0;6.24183200000;-75.56151500000;Mujer;45;Casado(a);Sin dato;Sin dato;Sin dato;Ama de casa;Sin dato;Sin dato;Sin dato;Bachillerato;1;reincidencia violencia intrafamiliar;Física;Sin dato;Sin dato;Sin dato;Sin dato;Sin dato;El Salvador;#0912;9;Residencia;Comisaría 9 - bueno aires;Sin dato;Sin dato;Sin dato;Sin dato;Sin dato;Sin dato;Sin dato
2013-10-02 14:00:00;1.0;6.26755900000;-75.54842900000;Mujer;27;Soltero(a);Sin dato;Sin dato;Sin dato;Ama de casa;Sin dato;Sin dato;Sin dato;Bachillerato;1;reincidencia violencia intrafamiliar;Daño psicológico;Sin dato;Sin dato;Sin dato;Sin dato;Sin dato;El Raizal;#0305;3;Sin dato;Comisaría 3 - manrique;Sin dato;Sin dato;Sin dato;Sin dato;Sin dato;Sin dato;Sin dato
2013-10-04 00:00:00;1.0;NaN;NaN;Mujer;51;Viudo(a);Sin dato;Sin dato;Sin dato;Ama de casa;Sin dato;Sin dato;Sin dato;Primaria;1;reincidencia violencia intrafamiliar;Sin dato;Sin dato;Sin dato;Sin dato;Sin dato;Sin dato;Sin dato 60 San Cristobal;SIN DATO 60 SAN CRISTOBAL;60;Residencia;Comisaría san cristobal;Sin dato;Sin dato;Sin dato;Sin dato;Sin dato;Sin dato;Sin dato
2013-10-04 10:00:00;1.0;6.24601700000;-75.58395900000;Mujer;56;Casado(a);Sin dato;Sin dato;Sin dato;Ama de casa;Sin dato;Sin dato;Sin dato;Primaria;0;reincidencia violencia intrafamiliar;Daño psicológico;Sin dato;Sin dato;Sin dato;Sin dato;Sin dato;San Joaquín;#1104;11;Residencia;Comisaría 11 - floresta;Sin dato;Sin dato;Sin dato;Sin dato;Sin dato;Sin dato;Sin dato
2013-10-06 19:00:00;1.0;6.25048300000;-75.59615000000;Mujer;21;Soltero(a);Sin dato;Sin dato;Sin dato;Sin dato;Sin dato;Sin dato;Sin dato;Técnica;1;reincidencia violencia intrafamiliar;Física;Sin dato;Sin dato;Sin dato;Sin dato;Sin dato;El Velódromo;#1112;11;Residencia;Comisaría 11 - floresta;Sin dato;Sin dato;Sin dato;Sin dato;Sin dato;Sin dato;Sin dato
2013-10-07 14:00:00;1.0;6.27132900000;-75.55514200000;Mujer;51;Casado(a);Sin dato;Sin dato;Sin dato;Ama de casa;Sin dato;Sin dato;Sin dato;Bachillerato;1;reincidencia violencia intrafamiliar;Física;Sin dato;Sin dato;Sin dato;Sin dato;Sin dato;Campo Valdés No.1;#0410;4;Residencia;Comisaría 3 - manrique;Sin dato;Sin dato;Sin dato;Sin dato;Sin dato;Sin dato;Sin dato
2013-10-07 18:00:00;1.0;6.17461100000;-75.63905400000;Mujer;57;Casado(a);Sin dato;Sin dato;Sin dato;Comerciante;Sin dato;Sin dato;Sin dato;Primaria;0;reincidencia violencia intrafamiliar;Maltrato;Sin dato;Sin dato;Sin dato;Sin dato;Sin dato;Área Urbana Cgto. San Antonio de Prado;#AUC2;80;Residencia;Comisaría san antonio de prado;Sin dato;Sin dato;Sin dato;Sin dato;Sin dato;Sin dato;Sin dato
2013-10-11 12:00:00;1.0;6.24267000000;-75.54843900000;Mujer;31;Unión marital de hecho;Sin dato;Sin dato;Sin dato;Ama de casa;Sin dato;Sin dato;Sin dato;Bachillerato;0;reincidencia violencia intrafamiliar;Física;Sin dato;Sin dato;Sin dato;Sin dato;Sin dato;El Pinal;#0810;8;Residencia;Comisaría 8 - villa hermosa;Sin dato;Sin dato;Sin dato;Sin dato;Sin dato;Sin dato;Sin dato
2013-10-11 22:00:00;1.0;6.17449800000;-75.64161700000;Mujer;45;Soltero(a);Sin dato;Sin dato;Sin dato;Docente;Sin dato;Sin dato;Sin dato;Universitario;0;reincidencia violencia intrafamiliar;Daño psicológico;Sin dato;Sin dato;Sin dato;Sin dato;Sin dato;Área Urbana Cgto. San Antonio de Prado;#AUC2;80;Residencia;Comisaría san antonio de prado;Sin dato;Sin dato;Sin dato;Sin dato;Sin dato;Sin dato;Sin dato
2013-10-13 06:00:00;1.0;6.28882100000;-75.54823600000;Mujer;78;Casado(a);Sin dato;Sin dato;Sin dato;Ama de casa;Sin dato;Sin dato;Sin dato;Primaria;1;reincidencia violencia intrafamiliar;Daño psicológico;Sin dato;Sin dato;Sin dato;Sin dato;Sin dato;Moscú No.2;#0105;1;Residencia;Comisaría 1 - comuna uno;Sin dato;Sin dato;Sin dato;Sin dato;Sin dato;Sin dato;Sin dato
2013-10-14 06:00:00;1.0;6.30939500000;-75.57153500000;Mujer;25;Casado(a);Sin dato;Sin dato;Sin dato;Estudiante;Sin dato;Sin dato;Sin dato;Bachillerato;1;reincidencia violencia intrafamiliar;Física;Sin dato;Sin dato;Sin dato;Sin dato;Sin dato;Tejelo;#0504;5;Residencia;Comisaría 6 - 12 de octubre;Sin dato;Sin dato;Sin dato;Sin dato;Sin dato;Sin dato;Sin dato
2013-10-22 21:00:00;1.0;6.27545800000;-75.55057000000;Mujer;48;Casado(a);Sin dato;Sin dato;Sin dato;Ama de casa;Sin dato;Sin dato;Sin dato;Bachillerato;1;reincidencia violencia intrafamiliar;Daño psicológico;Sin dato;Sin dato;Sin dato;Sin dato;Sin dato;Campo Valdés No.2;#0303;3;Residencia;Comisaría 3 - manrique;Sin dato;Sin dato;Sin dato;Sin dato;Sin dato;Sin dato;Sin dato
2013-10-22 21:00:00;1.0;6.27545800000;-75.55057000000;Mujer;84;Viudo(a);Sin dato;Sin dato;Sin dato;Ama de casa;Sin dato;Sin dato;Sin dato;Primaria;1;reincidencia violencia intrafamiliar;Daño psicológico;Sin dato;Sin dato;Sin dato;Sin dato;Sin dato;Campo Valdés No.2;#0303;3;Residencia;Comisaría 3 - manrique;Sin dato;Sin dato;Sin dato;Sin dato;Sin dato;Sin dato;Sin dato
2013-10-23 00:00:00;1.0;6.29282800000;-75.56190100000;Mujer;44;Casado(a);Sin dato;Sin dato;Sin dato;Obrero;Sin dato;Sin dato;Sin dato;Primaria;1;reincidencia violencia intrafamiliar;Daño psicológico;Sin dato;Sin dato;Sin dato;Sin dato;Sin dato;Santa Cruz;#0210;2;Vía pública;Comisaría 2 - villa del socorro;Sin dato;Sin dato;Sin dato;Sin dato;Sin dato;Sin dato;Sin dato
2013-10-24 00:00:00;1.0;NaN;NaN;Mujer;31;Soltero(a);Sin dato;Sin dato;Sin dato;Ama de casa;Sin dato;Sin dato;Sin dato;Bachillerato;1;reincidencia violencia intrafamiliar;Sin dato;Sin dato;Sin dato;Sin dato;Sin dato;Sin dato;Sin dato 60 San Cristobal;SIN DATO 60 SAN CRISTOBAL;60;Residencia;Comisaría san cristobal;Sin dato;Sin dato;Sin dato;Sin dato;Sin dato;Sin dato;Sin dato
2013-10-24 19:00:00;1.0;6.28953300000;-75.58230600000;Hombre;72;Viudo(a);Sin dato;Sin dato;Sin dato;Pensionado/jubilado;Sin dato;Sin dato;Sin dato;Primaria;0;reincidencia violencia intrafamiliar;Física;Sin dato;Sin dato;Sin dato;Sin dato;Sin dato;Kennedy;#0607;6;Residencia;Comisaría 6 - 12 de octubre;Sin dato;Sin dato;Sin dato;Sin dato;Sin dato;Sin dato;Sin dato
2013-10-24 18:00:00;1.0;6.27012100000;-75.54962200000;Mujer;43;Sin dato;Sin dato;Sin dato;Sin dato;Ama de casa;Sin dato;Sin dato;Sin dato;Bachillerato;0;reincidencia violencia intrafamiliar;Daño psicológico;Sin dato;Sin dato;Sin dato;Sin dato;Sin dato;Campo Valdés No.2;#0303;3;Residencia;Comisaría 3 - manrique;Sin dato;Sin dato;Sin dato;Sin dato;Sin dato;Sin dato;Sin dato
2013-10-24 15:00:00;1.0;6.28729900000;-75.54204500000;Mujer;47;Soltero(a);Sin dato;Sin dato;Sin dato;Ama de casa;Sin dato;Sin dato;Sin dato;Primaria;1;reincidencia violencia intrafamiliar;Daño psicológico;Sin dato;Sin dato;Sin dato;Sin dato;Sin dato;Aldea Pablo VI;#0109;1;Residencia;Comisaría 1 - comuna uno;Sin dato;Sin dato;Sin dato;Sin dato;Sin dato;Sin dato;Sin dato
2013-10-24 19:00:00;1.0;6.23267600000;-75.53390900000;Mujer;37;Casado(a);Sin dato;Sin dato;Sin dato;Ama de casa;Sin dato;Sin dato;Sin dato;Primaria;0;reincidencia violencia intrafamiliar;Física;Sin dato;Sin dato;Arma cortopunzante;Sin dato;Sin dato;Las Estancias;#0815;8;Residencia;Comisaría 8 - villa hermosa;Sin dato;Sin dato;Sin dato;Sin dato;Sin dato;Sin dato;Sin dato
2013-10-24 16:00:00;1.0;6.23386800000;-75.55858400000;Mujer;43;Casado(a);Sin dato;Sin dato;Sin dato;Ama de casa;Sin dato;Sin dato;Sin dato;Bachillerato;0;reincidencia violencia intrafamiliar;Daño psicológico;Sin dato;Sin dato;Sin dato;Sin dato;Sin dato;Loreto;#0913;9;Residencia;Comisaría 9 - bueno aires;Sin dato;Sin dato;Sin dato;Sin dato;Sin dato;Sin dato;Sin dato
2013-10-25 20:00:00;1.0;NaN;NaN;Mujer;38;Soltero(a);Sin dato;Sin dato;Sin dato;Ama de casa;Sin dato;Sin dato;Sin dato;Primaria;1;reincidencia violencia intrafamiliar;Física;Sin dato;Sin dato;Sin dato;Sin dato;Sin dato;Villa Lilliam;#0819;8;Residencia;Comisaría 8 - villa hermosa;Sin dato;Sin dato;Sin dato;Sin dato;Sin dato;Sin dato;Sin dato
2013-10-25 16:00:00;1.0;6.28586000000;-75.58471700000;Hombre;56;Casado(a);Sin dato;Sin dato;Sin dato;Oficial construcción;Sin dato;Sin dato;Sin dato;Primaria;1;reincidencia violencia intrafamiliar;Maltrato;Sin dato;Sin dato;Sin dato;Sin dato;Sin dato;El Diamante;#0711;7;Residencia;Comisaría 7 - comuna siete;Sin dato;Sin dato;Sin dato;Sin dato;Sin dato;Sin dato;Sin dato
2013-10-25 12:00:00;1.0;6.23356600000;-75.55515400000;Mujer;34;Casado(a);Sin dato;Sin dato;Sin dato;Ama de casa;Sin dato;Sin dato;Sin dato;Bachillerato;1;reincidencia violencia intrafamiliar;Maltrato;Sin dato;Sin dato;Sin dato;Sin dato;Sin dato;Loreto;#0913;9;Residencia;Comisaría 8 - villa hermosa;Sin dato;Sin dato;Sin dato;Sin dato;Sin dato;Sin dato;Sin dato
2013-10-25 12:00:00;1.0;6.22238600000;-75.60646500000;Mujer;54;Divorciado(a);Sin dato;Sin dato;Sin dato;Tecnólogo;Sin dato;Sin dato;Sin dato;Técnica;1;reincidencia violencia intrafamiliar;Maltrato;Sin dato;Sin dato;Sin dato;Sin dato;Sin dato;La Gloria;#1612;16;Residencia;Comisaría 16 - belén;Sin dato;Sin dato;Sin dato;Sin dato;Sin dato;Sin dato;Sin dato
2013-10-25 12:00:00;1.0;6.28016400000;-75.55661600000;Mujer;64;Viudo(a);Sin dato;Sin dato;Sin dato;Comerciante;Sin dato;Sin dato;Sin dato;Primaria;0;reincidencia violencia intrafamiliar;Daño psicológico;Sin dato;Sin dato;Sin dato;Sin dato;Sin dato;La Piñuela;#0412;4;Residencia;Comisaría 4 - campo valdés;Sin dato;Sin dato;Sin dato;Sin dato;Sin dato;Sin dato;Sin dato
2013-10-25 14:00:00;1.0;6.28011300000;-75.56684900000;Mujer;34;Soltero(a);Sin dato;Sin dato;Sin dato;Sin dato;Sin dato;Sin dato;Sin dato;Primaria;1;reincidencia violencia intrafamiliar;Daño psicológico;Sin dato;Sin dato;Sin dato;Sin dato;Sin dato;Moravia;#0405;4;Residencia;Comisaría 4 - campo valdés;Sin dato;Sin dato;Sin dato;Sin dato;Sin dato;Sin dato;Sin dato
2013-10-26 13:00:00;1.0;6.25182500000;-75.55868100000;Mujer;27;Soltero(a);Sin dato;Sin dato;Sin dato;Estudiante;Sin dato;Sin dato;Sin dato;Bachillerato;1;reincidencia violencia intrafamiliar;Daño psicológico;Sin dato;Sin dato;Objeto contundente;Sin dato;Sin dato;Los Ángeles;#1017;10;Residencia;Permanencia 1 el bosque;Sin dato;Sin dato;Sin dato;Sin dato;Sin dato;Sin dato;Sin dato
2013-10-26 13:00:00;1.0;6.25182500000;-75.55868100000;Mujer;27;Soltero(a);Sin dato;Sin dato;Sin dato;Estudiante;Sin dato;Sin dato;Sin dato;Bachillerato;1;reincidencia violencia intrafamiliar;Daño psicológico;Sin dato;Sin dato;Objeto contundente;Sin dato;Sin dato;Los Ángeles;#1017;10;Residencia;Permanencia 1 el bosque;Sin dato;Sin dato;Sin dato;Sin dato;Sin dato;Sin dato;Sin dato
2013-10-26 13:00:00;1.0;6.25182500000;-75.55868100000;Mujer;27;Soltero(a);Sin dato;Sin dato;Sin dato;Estudiante;Sin dato;Sin dato;Sin dato;Bachillerato;1;reincidencia violencia intrafamiliar;Daño psicológico;Sin dato;Sin dato;Objeto contundente;Sin dato;Sin dato;Los Ángeles;#1017;10;Residencia;Permanencia 1 el bosque;Sin dato;Sin dato;Sin dato;Sin dato;Sin dato;Sin dato;Sin dato
2013-10-26 16:00:00;1.0;6.24841200000;-75.54304300000;Mujer;17;Soltero(a);Sin dato;Sin dato;Sin dato;Estudiante;Sin dato;Sin dato;Sin dato;Bachillerato;0;reincidencia violencia intrafamiliar;Física;Sin dato;Sin dato;Sin dato;Sin dato;Sin dato;Trece de Noviembre;#0811;8;Residencia;Comisaría 8 - villa hermosa;Sin dato;Sin dato;Sin dato;Sin dato;Sin dato;Sin dato;Sin dato
2013-10-26 21:00:00;1.0;6.23755200000;-75.55788000000;Mujer;29;Soltero(a);Sin dato;Sin dato;Sin dato;Sin dato;Sin dato;Sin dato;Sin dato;Técnica;1;reincidencia violencia intrafamiliar;Daño psicológico;Sin dato;Sin dato;Sin dato;Sin dato;Sin dato;Gerona;#0911;9;Residencia;Comisaría 9 - bueno aires;Sin dato;Sin dato;Sin dato;Sin dato;Sin dato;Sin dato;Sin dato
2013-10-26 03:00:00;1.0;6.25185400000;-75.55522100000;Mujer;34;Unión marital de hecho;Sin dato;Sin dato;Sin dato;Sin dato;Sin dato;Sin dato;Sin dato;Técnica;0;reincidencia violencia intrafamiliar;Física;Sin dato;Sin dato;Sin dato;Sin dato;Sin dato;Los Ángeles;#1017;10;Residencia;Comisaría 10 - centro;Sin dato;Sin dato;Sin dato;Sin dato;Sin dato;Sin dato;Sin dato
2013-10-26 21:00:00;1.0;6.28465000000;-75.60206900000;Mujer;45;Casado(a);Sin dato;Sin dato;Sin dato;Ama de casa;Sin dato;Sin dato;Sin dato;Bachillerato;1;reincidencia violencia intrafamiliar;Sexual;Sin dato;Sin dato;Sin dato;Sin dato;Sin dato;Pajarito;#0723;7;Residencia;Comisaría 7 - comuna siete;Sin dato;Sin dato;Sin dato;Sin dato;Sin dato;Sin dato;Sin dato
2013-10-26 22:00:00;1.0;6.23343700000;-75.55660500000;Mujer;51;Casado(a);Sin dato;Sin dato;Sin dato;Ama de casa;Sin dato;Sin dato;Sin dato;Bachillerato;0;reincidencia violencia intrafamiliar;Física;Sin dato;Sin dato;Sin dato;Sin dato;Sin dato;Loreto;#0913;9;Residencia;Comisaría 9 - bueno aires;Sin dato;Sin dato;Sin dato;Sin dato;Sin dato;Sin dato;Sin dato
2013-10-26 00:00:00;1.0;6.28172300000;-75.64263000000;Mujer;35;Casado(a);Sin dato;Sin dato;Sin dato;Sin dato;Sin dato;Sin dato;Sin dato;Bachillerato;1;reincidencia violencia intrafamiliar;Sin dato;Sin dato;Sin dato;Sin dato;Sin dato;Sin dato;Travesias;#6016;60;Residencia;Comisaría san cristobal;Sin dato;Sin dato;Sin dato;Sin dato;Sin dato;Sin dato;Sin dato
2013-10-26 20:00:00;1.0;6.22765800000;-75.58391200000;Mujer;25;Soltero(a);Sin dato;Sin dato;Sin dato;Trabajador social;Sin dato;Sin dato;Sin dato;Universitario;1;reincidencia violencia intrafamiliar;Física;Sin dato;Sin dato;Sin dato;Sin dato;Sin dato;Trinidad;#1503;15;Residencia;Comisaría 15 - guayabal;Sin dato;Sin dato;Sin dato;Sin dato;Sin dato;Sin dato;Sin dato
2013-10-27 08:00:00;1.0;NaN;NaN;Mujer;53;Divorciado(a);Sin dato;Sin dato;Sin dato;Sin dato;Sin dato;Sin dato;Sin dato;Técnica;1;reincidencia violencia intrafamiliar;Maltrato;Sin dato;Sin dato;Sin dato;Sin dato;Sin dato;Sin dato;SIN DATO;SIN DATO;Residencia;Permanencia 1 el bosque;Sin dato;Sin dato;Sin dato;Sin dato;Sin dato;Sin dato;Sin dato
2013-10-27 00:00:00;1.0;NaN;NaN;Mujer;36;Unión marital de hecho;Sin dato;Sin dato;Sin dato;Sin dato;Sin dato;Sin dato;Sin dato;Bachillerato;0;reincidencia violencia intrafamiliar;Sin dato;Sin dato;Sin dato;Sin dato;Sin dato;Sin dato;Sin dato 60 San Cristobal;SIN DATO 60 SAN CRISTOBAL;60;Residencia;Comisaría san cristobal;Sin dato;Sin dato;Sin dato;Sin dato;Sin dato;Sin dato;Sin dato
2013-10-27 01:00:00;1.0;NaN;NaN;Mujer;25;Unión marital de hecho;Sin dato;Sin dato;Sin dato;Sin dato;Sin dato;Sin dato;Sin dato;Primaria;1;reincidencia violencia intrafamiliar;Física;Sin dato;Sin dato;Sin dato;Sin dato;Sin dato;Aranjuez;#0413;4;Residencia;Comisaría 4 - campo valdés;Sin dato;Sin dato;Sin dato;Sin dato;Sin dato;Sin dato;Sin dato
2013-10-27 13:00:00;1.0;NaN;NaN;Mujer;46;Casado(a);Sin dato;Sin dato;Sin dato;Sin dato;Sin dato;Sin dato;Sin dato;Primaria;1;reincidencia violencia intrafamiliar;Física;Sin dato;Sin dato;Sin dato;Sin dato;Sin dato;Popular;#0103;1;Residencia;Comisaría 1 - comuna uno;Sin dato;Sin dato;Sin dato;Sin dato;Sin dato;Sin dato;Sin dato
2013-10-27 00:00:00;1.0;NaN;NaN;Mujer;21;Soltero(a);Sin dato;Sin dato;Sin dato;Ama de casa;Sin dato;Sin dato;Sin dato;Bachillerato;1;reincidencia violencia intrafamiliar;Sin dato;Sin dato;Sin dato;Sin dato;Sin dato;Sin dato;Sin dato 60 San Cristobal;SIN DATO 60 SAN CRISTOBAL;60;Residencia;Comisaría san cristobal;Sin dato;Sin dato;Sin dato;Sin dato;Sin dato;Sin dato;Sin dato
2013-10-27 07:00:00;1.0;NaN;NaN;Mujer;-1;Unión marital de hecho;Sin dato;Sin dato;Sin dato;Sin dato;Sin dato;Sin dato;Sin dato;Universitario;1;reincidencia violencia intrafamiliar;Daño psicológico;Sin dato;Sin dato;Sin dato;Sin dato;Sin dato;Los Colores;#1114;11;Residencia;Comisaría 11 - floresta;Sin dato;Sin dato;Sin dato;Sin dato;Sin dato;Sin dato;Sin dato
2013-10-27 00:00:00;1.0;NaN;NaN;Mujer;25;Soltero(a);Sin dato;Sin dato;Sin dato;Desempleado;Sin dato;Sin dato;Sin dato;Técnica;1;reincidencia violencia intrafamiliar;Daño psicológico;Sin dato;Sin dato;Sin dato;Sin dato;Sin dato;La Frontera;#0204;2;Sin dato;Comisaría santa elena;Sin dato;Sin dato;Sin dato;Sin dato;Sin dato;Sin dato;Sin dato
2013-10-27 00:00:00;1.0;NaN;NaN;Mujer;43;Unión marital de hecho;Sin dato;Sin dato;Sin dato;Sin dato;Sin dato;Sin dato;Sin dato;Bachillerato;1;reincidencia violencia intrafamiliar;Sin dato;Sin dato;Sin dato;Sin dato;Sin dato;Sin dato;Sin dato 60 San Cristobal;SIN DATO 60 SAN CRISTOBAL;60;Residencia;Comisaría san cristobal;Sin dato;Sin dato;Sin dato;Sin dato;Sin dato;Sin dato;Sin dato
2013-10-27 00:00:00;1.0;6.30024600000;-75.55005700000;Mujer;28;Unión marital de hecho;Sin dato;Sin dato;Sin dato;Ama de casa;Sin dato;Sin dato;Sin dato;Bachillerato;0;reincidencia violencia intrafamiliar;Maltrato;Sin dato;Sin dato;Arma cortopunzante;Sin dato;Sin dato;La Francia;#0205;2;Residencia;Comisaría 2 - villa del socorro;Sin dato;Sin dato;Sin dato;Sin dato;Sin dato;Sin dato;Sin dato
2013-10-27 00:00:00;1.0;6.29509900000;-75.55799100000;Mujer;25;Soltero(a);Sin dato;Sin dato;Sin dato;Auxiliar de aseo;Sin dato;Sin dato;Sin dato;Bachillerato;1;reincidencia violencia intrafamiliar;Daño psicológico;Sin dato;Sin dato;Sin dato;Sin dato;Sin dato;Villa Niza;#0208;2;Residencia;Comisaría 2 - villa del socorro;Sin dato;Sin dato;Sin dato;Sin dato;Sin dato;Sin dato;Sin dato
2013-10-27 21:00:00;1.0;6.26771900000;-75.55247600000;Mujer;27;Unión marital de hecho;Sin dato;Sin dato;Sin dato;Cajero;Sin dato;Sin dato;Sin dato;Primaria;1;reincidencia violencia intrafamiliar;Maltrato;Sin dato;Sin dato;Sin dato;Sin dato;Sin dato;El Pomar;#0306;3;Residencia;Comisaría 3 - manrique;Sin dato;Sin dato;Sin dato;Sin dato;Sin dato;Sin dato;Sin dato
2013-10-27 03:00:00;1.0;6.22906500000;-75.56454600000;Mujer;30;Casado(a);Sin dato;Sin dato;Sin dato;Sin dato;Sin dato;Sin dato;Sin dato;Técnica;1;reincidencia violencia intrafamiliar;Física;Sin dato;Sin dato;Sin dato;Sin dato;Sin dato;Asomadera No.1;#0914;9;Residencia;Comisaría 9 - bueno aires;Sin dato;Sin dato;Sin dato;Sin dato;Sin dato;Sin dato;Sin dato
2013-10-27 10:00:00;1.0;6.29967600000;-75.54591000000;Hombre;34;Unión marital de hecho;Sin dato;Sin dato;Sin dato;Sin dato;Sin dato;Sin dato;Sin dato;Primaria;0;reincidencia violencia intrafamiliar;Daño psicológico;Sin dato;Sin dato;Sin dato;Sin dato;Sin dato;Santo Domingo Savio No.1;#0101;1;Residencia;Comisaría 1 - comuna uno;Sin dato;Sin dato;Sin dato;Sin dato;Sin dato;Sin dato;Sin dato
2013-10-27 05:00:00;1.0;6.26196000000;-75.54844900000;Mujer;60;Viudo(a);Sin dato;Sin dato;Sin dato;Ama de casa;Sin dato;Sin dato;Sin dato;Primaria;1;reincidencia violencia intrafamiliar;Maltrato;Sin dato;Sin dato;Sin dato;Sin dato;Sin dato;Manrique Oriental;#0308;3;Residencia;Comisaría 3 - manrique;Sin dato;Sin dato;Sin dato;Sin dato;Sin dato;Sin dato;Sin dato
2013-10-27 07:00:00;1.0;6.21833900000;-75.56708300000;Hombre;30;Unión marital de hecho;Sin dato;Sin dato;Sin dato;Sin dato;Sin dato;Sin dato;Sin dato;Universitario;1;reincidencia violencia intrafamiliar;Daño psicológico;Sin dato;Sin dato;Sin dato;Sin dato;Sin dato;Castropol;#1404;14;Residencia;Comisaría 14 - poblado;Sin dato;Sin dato;Sin dato;Sin dato;Sin dato;Sin dato;Sin dato
2013-10-27 23:00:00;1.0;6.27581500000;-75.60594800000;Hombre;71;Casado(a);Sin dato;Sin dato;Sin dato;Pensionado/jubilado;Sin dato;Sin dato;Sin dato;Primaria;1;reincidencia violencia intrafamiliar;Sin dato;Sin dato;Sin dato;Sin dato;Sin dato;Sin dato;Blanquizal;#1302;13;Residencia;Comisaría 13 - san javier;Sin dato;Sin dato;Sin dato;Sin dato;Sin dato;Sin dato;Sin dato
2013-10-27 20:00:00;1.0;6.24267000000;-75.54465500000;Mujer;75;Viudo(a);Sin dato;Sin dato;Sin dato;Pensionado/jubilado;Sin dato;Sin dato;Sin dato;Primaria;1;reincidencia violencia intrafamiliar;Maltrato;Sin dato;Sin dato;Sin dato;Sin dato;Sin dato;El Pinal;#0810;8;Residencia;Comisaría 8 - villa hermosa;Sin dato;Sin dato;Sin dato;Sin dato;Sin dato;Sin dato;Sin dato
2013-10-27 20:00:00;1.0;6.24267000000;-75.54465500000;Hombre;42;Soltero(a);Sin dato;Sin dato;Sin dato;Desempleado;Sin dato;Sin dato;Sin dato;Sin dato;1;reincidencia violencia intrafamiliar;Maltrato;Sin dato;Sin dato;Sin dato;Sin dato;Sin dato;El Pinal;#0810;8;Residencia;Comisaría 8 - villa hermosa;Sin dato;Sin dato;Sin dato;Sin dato;Sin dato;Sin dato;Sin dato
2013-10-27 03:00:00;1.0;6.24127400000;-75.56087300000;Mujer;34;Sin dato;Sin dato;Sin dato;Sin dato;Sin dato;Sin dato;Sin dato;Sin dato;Bachillerato;0;reincidencia violencia intrafamiliar;Daño psicológico;Sin dato;Sin dato;Sin dato;Sin dato;Sin dato;El Salvador;#0912;9;Residencia;Comisaría 9 - bueno aires;Sin dato;Sin dato;Sin dato;Sin dato;Sin dato;Sin dato;Sin dato
2013-10-28 20:00:00;1.0;NaN;NaN;Hombre;33;Soltero(a);Sin dato;Sin dato;Sin dato;Auxiliar;Sin dato;Sin dato;Sin dato;Universitario;0;reincidencia violencia intrafamiliar;Daño psicológico;Sin dato;Sin dato;Sin dato;Sin dato;Sin dato;Campo Valdés No.1;#0410;4;Residencia;Comisaría 4 - campo valdés;Sin dato;Sin dato;Sin dato;Sin dato;Sin dato;Sin dato;Sin dato
2013-10-28 11:00:00;1.0;6.23304500000;-75.54139800000;Mujer;50;Divorciado(a);Sin dato;Sin dato;Sin dato;Ama de casa;Sin dato;Sin dato;Sin dato;Primaria;1;reincidencia violencia intrafamiliar;Daño psicológico;Sin dato;Sin dato;Sin dato;Sin dato;Sin dato;Alejandro Echavarría;#0905;9;Residencia;Comisaría 9 - bueno aires;Sin dato;Sin dato;Sin dato;Sin dato;Sin dato;Sin dato;Sin dato
2013-10-28 07:00:00;1.0;6.22447700000;-75.60525800000;Mujer;57;Soltero(a);Sin dato;Sin dato;Sin dato;Estilista/peluquero;Sin dato;Sin dato;Sin dato;Primaria;0;reincidencia violencia intrafamiliar;Física;Sin dato;Sin dato;Sin dato;Sin dato;Sin dato;Altavista;#1613;16;Residencia;Comisaría 16 - belén;Sin dato;Sin dato;Sin dato;Sin dato;Sin dato;Sin dato;Sin dato
2013-10-28 12:00:00;1.0;6.24553800000;-75.55601700000;Mujer;62;Casado(a);Sin dato;Sin dato;Sin dato;Ama de casa;Sin dato;Sin dato;Sin dato;Primaria;1;reincidencia violencia intrafamiliar;Maltrato;Sin dato;Sin dato;Sin dato;Sin dato;Sin dato;Barrio Caycedo;#0906;9;Residencia;Comisaría 9 - bueno aires;Sin dato;Sin dato;Sin dato;Sin dato;Sin dato;Sin dato;Sin dato
2013-10-28 20:00:00;1.0;6.21418200000;-75.60113700000;Mujer;48;Casado(a);Sin dato;Sin dato;Sin dato;Asesor;Sin dato;Sin dato;Sin dato;Bachillerato;0;reincidencia violencia intrafamiliar;Daño psicológico;Sin dato;Sin dato;Sin dato;Sin dato;Sin dato;El Rincón;#1610;16;Residencia;Permanencia 3 belen;Sin dato;Sin dato;Sin dato;Sin dato;Sin dato;Sin dato;Sin dato
2013-10-28 19:00:00;1.0;6.27540400000;-75.61852200000;Hombre;25;Casado(a);Sin dato;Sin dato;Sin dato;Sin dato;Sin dato;Sin dato;Sin dato;Bachillerato;0;reincidencia violencia intrafamiliar;Maltrato;Sin dato;Sin dato;Sin dato;Sin dato;Sin dato;Santa Margarita;#0720;7;Residencia;Comisaría 7 - comuna siete;Sin dato;Sin dato;Sin dato;Sin dato;Sin dato;Sin dato;Sin dato
2013-10-28 10:00:00;1.0;6.25571900000;-75.55784900000;Mujer;44;Casado(a);Sin dato;Sin dato;Sin dato;Estilista/peluquero;Sin dato;Sin dato;Sin dato;Bachillerato;1;reincidencia violencia intrafamiliar;Daño psicológico;Sin dato;Sin dato;Sin dato;Sin dato;Sin dato;San Miguel;#0803;8;Residencia;Comisaría 16 - belén;Sin dato;Sin dato;Sin dato;Sin dato;Sin dato;Sin dato;Sin dato
2013-10-29 13:00:00;1.0;6.27290700000;-75.61081400000;Mujer;26;Casado(a);Sin dato;Sin dato;Sin dato;Ama de casa;Sin dato;Sin dato;Sin dato;Universitario;0;reincidencia violencia intrafamiliar;Física;Sin dato;Sin dato;Sin dato;Sin dato;Sin dato;Olaya Herrera;#0722;7;Residencia;Comisaría 7 - comuna siete;Sin dato;Sin dato;Sin dato;Sin dato;Sin dato;Sin dato;Sin dato
2013-10-29 19:00:00;1.0;6.27208300000;-75.55563900000;Mujer;68;Viudo(a);Sin dato;Sin dato;Sin dato;Ama de casa;Sin dato;Sin dato;Sin dato;Primaria;1;reincidencia violencia intrafamiliar;Maltrato;Sin dato;Sin dato;Sin dato;Sin dato;Sin dato;Campo Valdés No.1;#0410;4;Residencia;Comisaría de apoyo;Sin dato;Sin dato;Sin dato;Sin dato;Sin dato;Sin dato;Sin dato
2013-10-29 19:00:00;1.0;6.27208300000;-75.55563900000;Mujer;74;Soltero(a);Sin dato;Sin dato;Sin dato;Ama de casa;Sin dato;Sin dato;Sin dato;Primaria;1;reincidencia violencia intrafamiliar;Maltrato;Sin dato;Sin dato;Sin dato;Sin dato;Sin dato;Campo Valdés No.1;#0410;4;Residencia;Comisaría de apoyo;Sin dato;Sin dato;Sin dato;Sin dato;Sin dato;Sin dato;Sin dato
2013-10-29 19:00:00;1.0;6.29468300000;-75.53981400000;Mujer;29;Unión marital de hecho;Sin dato;Sin dato;Sin dato;Sin dato;Sin dato;Sin dato;Sin dato;Primaria;1;reincidencia violencia intrafamiliar;Daño psicológico;Sin dato;Sin dato;Sin dato;Sin dato;Sin dato;La Avanzada;#0111;1;Residencia;Comisaría 1 - comuna uno;Sin dato;Sin dato;Sin dato;Sin dato;Sin dato;Sin dato;Sin dato
2013-10-29 23:00:00;1.0;6.24383400000;-75.55386600000;Hombre;47;Viudo(a);Sin dato;Sin dato;Sin dato;Desempleado;Sin dato;Sin dato;Sin dato;Bachillerato;1;reincidencia violencia intrafamiliar;Maltrato;Sin dato;Sin dato;Sin dato;Sin dato;Sin dato;Sucre;#0809;8;Residencia;Comisaría 8 - villa hermosa;Sin dato;Sin dato;Sin dato;Sin dato;Sin dato;Sin dato;Sin dato
2013-10-29 23:00:00;1.0;6.24383400000;-75.55386600000;Hombre;33;Soltero(a);Sin dato;Sin dato;Sin dato;Sin dato;Sin dato;Sin dato;Sin dato;Bachillerato;1;reincidencia violencia intrafamiliar;Maltrato;Sin dato;Sin dato;Sin dato;Sin dato;Sin dato;Sucre;#0809;8;Residencia;Comisaría 8 - villa hermosa;Sin dato;Sin dato;Sin dato;Sin dato;Sin dato;Sin dato;Sin dato
2013-10-29 22:00:00;1.0;6.30281000000;-75.57731000000;Mujer;45;Casado(a);Sin dato;Sin dato;Sin dato;Pensionado/jubilado;Sin dato;Sin dato;Sin dato;Bachillerato;1;reincidencia violencia intrafamiliar;Física;Sin dato;Sin dato;Sin dato;Sin dato;Sin dato;Doce de Octubre No.2;#0603;6;Residencia;Comisaría 6 - 12 de octubre;Sin dato;Sin dato;Sin dato;Sin dato;Sin dato;Sin dato;Sin dato
2013-10-30 00:00:00;1.0;6.30643700000;-75.55092800000;Mujer;52;Casado(a);Sin dato;Sin dato;Sin dato;Sin dato;Sin dato;Sin dato;Sin dato;Bachillerato;0;reincidencia violencia intrafamiliar;Física;Sin dato;Sin dato;Sin dato;Sin dato;Sin dato;Playón de los Comuneros;#0202;2;Residencia;Comisaría 2 - villa del socorro;Sin dato;Sin dato;Sin dato;Sin dato;Sin dato;Sin dato;Sin dato
2013-10-30 04:00:00;1.0;6.22513700000;-75.58650800000;Mujer;22;Soltero(a);Sin dato;Sin dato;Sin dato;Auxiliar;Sin dato;Sin dato;Sin dato;Técnica;0;reincidencia violencia intrafamiliar;Daño psicológico;Sin dato;Sin dato;Sin dato;Sin dato;Sin dato;Trinidad;#1503;15;Residencia;Comisaría 15 - guayabal;Sin dato;Sin dato;Sin dato;Sin dato;Sin dato;Sin dato;Sin dato
2013-10-30 00:00:00;1.0;6.30406200000;-75.54448200000;Mujer;23;Soltero(a);Sin dato;Sin dato;Sin dato;Arquitecto;Sin dato;Sin dato;Sin dato;Primaria;1;reincidencia violencia intrafamiliar;Daño psicológico;Sin dato;Sin dato;Arma cortopunzante;Sin dato;Sin dato;La Isla;#0201;2;Residencia;Comisaría 2 - villa del socorro;Sin dato;Sin dato;Sin dato;Sin dato;Sin dato;Sin dato;Sin dato
2013-10-30 13:00:00;1.0;6.23937900000;-75.55697500000;Mujer;19;Soltero(a);Sin dato;Sin dato;Sin dato;Estudiante;Sin dato;Sin dato;Sin dato;Bachillerato;0;reincidencia violencia intrafamiliar;Daño psicológico;Sin dato;Sin dato;Sin dato;Sin dato;Sin dato;Buenos Aires;#0907;9;Residencia;Comisaría 9 - bueno aires;Sin dato;Sin dato;Sin dato;Sin dato;Sin dato;Sin dato;Sin dato
2013-10-30 00:00:00;1.0;6.29442100000;-75.55883600000;Mujer;52;Casado(a);Sin dato;Sin dato;Sin dato;Ama de casa;Sin dato;Sin dato;Sin dato;Primaria;0;reincidencia violencia intrafamiliar;Daño psicológico;Sin dato;Sin dato;Sin dato;Sin dato;Sin dato;Santa Cruz;#0210;2;Residencia;Comisaría 2 - villa del socorro;Sin dato;Sin dato;Sin dato;Sin dato;Sin dato;Sin dato;Sin dato
2013-10-31 00:00:00;1.0;NaN;NaN;Mujer;75;Soltero(a);Sin dato;Sin dato;Sin dato;Sin dato;Sin dato;Sin dato;Sin dato;Sin dato;1;reincidencia violencia intrafamiliar;Física;Sin dato;Sin dato;Sin dato;Sin dato;Sin dato;Moscú No.1;#0209;2;Residencia;Comisaría 2 - villa del socorro;Sin dato;Sin dato;Sin dato;Sin dato;Sin dato;Sin dato;Sin dato
2013-10-31 11:00:00;1.0;6.28226500000;-75.55507200000;Mujer;51;Soltero(a);Sin dato;Sin dato;Sin dato;Sin dato;Sin dato;Sin dato;Sin dato;Bachillerato;1;reincidencia violencia intrafamiliar;Física;Sin dato;Sin dato;Sin dato;Sin dato;Sin dato;La Piñuela;#0412;4;Residencia;Comisaría 4 - campo valdés;Sin dato;Sin dato;Sin dato;Sin dato;Sin dato;Sin dato;Sin dato
2013-10-31 00:00:00;1.0;6.30010300000;-75.58075800000;Mujer;57;Casado(a);Sin dato;Sin dato;Sin dato;Ama de casa;Sin dato;Sin dato;Sin dato;Primaria;1;reincidencia violencia intrafamiliar;Física;Sin dato;Sin dato;Sin dato;Sin dato;Sin dato;Doce de Octubre No.2;#0603;6;Residencia;Comisaría 6 - 12 de octubre;Sin dato;Sin dato;Sin dato;Sin dato;Sin dato;Sin dato;Sin dato
2013-10-31 21:00:00;1.0;6.22469400000;-75.59598000000;Mujer;95;Viudo(a);Sin dato;Sin dato;Sin dato;Ama de casa;Sin dato;Sin dato;Sin dato;Bachillerato;1;reincidencia violencia intrafamiliar;Maltrato;Sin dato;Sin dato;Sin dato;Sin dato;Sin dato;San Bernardo;#1605;16;Residencia;Permanencia 3 belen;Sin dato;Sin dato;Sin dato;Sin dato;Sin dato;Sin dato;Sin dato
2013-10-31 21:00:00;1.0;6.25339400000;-75.61033000000;Mujer;37;Divorciado(a);Sin dato;Sin dato;Sin dato;Asesor;Sin dato;Sin dato;Sin dato;Técnica;0;reincidencia violencia intrafamiliar;Maltrato;Sin dato;Sin dato;Sin dato;Sin dato;Sin dato;El Danubio;#1207;12;Residencia;Comisaría 12 - santa mónica;Sin dato;Sin dato;Sin dato;Sin dato;Sin dato;Sin dato;Sin dato
2013-10-31 00:00:00;1.0;6.29555300000;-75.55148400000;Mujer;33;Unión marital de hecho;Sin dato;Sin dato;Sin dato;Sin dato;Sin dato;Sin dato;Sin dato;Primaria;1;reincidencia violencia intrafamiliar;Maltrato;Sin dato;Sin dato;Sin dato;Sin dato;Sin dato;Villa del Socorro;#0207;2;Residencia;Comisaría 2 - villa del socorro;Sin dato;Sin dato;Sin dato;Sin dato;Sin dato;Sin dato;Sin dato
2013-11-01 20:00:00;1.0;NaN;NaN;Mujer;38;Soltero(a);Sin dato;Sin dato;Sin dato;Médico;Sin dato;Sin dato;Sin dato;Universitario;0;reincidencia violencia intrafamiliar;Maltrato;Sin dato;Sin dato;Sin dato;Sin dato;Sin dato;San Joaquín;#1104;11;Residencia;Comisaría de apoyo;Sin dato;Sin dato;Sin dato;Sin dato;Sin dato;Sin dato;Sin dato
2013-11-01 22:00:00;1.0;NaN;NaN;Mujer;27;Soltero(a);Sin dato;Sin dato;Sin dato;Empleada doméstica;Sin dato;Sin dato;Sin dato;Bachillerato;1;reincidencia violencia intrafamiliar;Sin dato;Sin dato;Sin dato;Sin dato;Sin dato;Sin dato;Santo Domingo Savio No.1;#0101;1;Residencia;Inspección 1 - v. Guadalupe;Sin dato;Sin dato;Sin dato;Sin dato;Sin dato;Sin dato;Sin dato
2013-11-01 21:00:00;1.0;6.18314500000;-75.65147600000;Mujer;46;Casado(a);Sin dato;Sin dato;Sin dato;Comerciante;Sin dato;Sin dato;Sin dato;Primaria;0;reincidencia violencia intrafamiliar;Física;Sin dato;Sin dato;Sin dato;Sin dato;Sin dato;Área Urbana Cgto. San Antonio de Prado;#AUC2;80;Puesto de trabajo;Comisaría san antonio de prado;Sin dato;Sin dato;Sin dato;Sin dato;Sin dato;Sin dato;Sin dato
2013-11-02 21:00:00;1.0;NaN;NaN;Mujer;30;Unión marital de hecho;Sin dato;Sin dato;Sin dato;Sin dato;Sin dato;Sin dato;Sin dato;Primaria;1;reincidencia violencia intrafamiliar;Física;Sin dato;Sin dato;Objeto contundente;Sin dato;Sin dato;Altavista;#1613;16;Residencia;Permanencia 1 el bosque;Sin dato;Sin dato;Sin dato;Sin dato;Sin dato;Sin dato;Sin dato
2013-11-02 00:00:00;1.0;NaN;NaN;Mujer;38;Unión marital de hecho;Sin dato;Sin dato;Sin dato;Sin dato;Sin dato;Sin dato;Sin dato;Sin dato;1;reincidencia violencia intrafamiliar;Sin dato;Sin dato;Sin dato;Sin dato;Sin dato;Sin dato;Sin dato 80 San Antonio de Prado;SIN DATO 80 SAN ANTONIO DE PRADO;80;Sin dato;Comisaría san antonio de prado;Sin dato;Sin dato;Sin dato;Sin dato;Sin dato;Sin dato;Sin dato
2013-11-02 20:00:00;1.0;6.20582500000;-75.58503100000;Mujer;36;Casado(a);Sin dato;Sin dato;Sin dato;Estilista/peluquero;Sin dato;Sin dato;Sin dato;Técnica;0;reincidencia violencia intrafamiliar;Física;Sin dato;Sin dato;Sin dato;Sin dato;Sin dato;Cristo Rey;#1509;15;Residencia;Comisaría 15 - guayabal;Sin dato;Sin dato;Sin dato;Sin dato;Sin dato;Sin dato;Sin dato
2013-11-03 00:00:00;1.0;NaN;NaN;Mujer;43;Casado(a);Sin dato;Sin dato;Sin dato;Sin dato;Sin dato;Sin dato;Sin dato;Universitario;1;reincidencia violencia intrafamiliar;Daño psicológico;Sin dato;Sin dato;Sin dato;Sin dato;Sin dato;Sin dato;SIN DATO;SIN DATO;Residencia;Comisaría 12 - santa mónica;Sin dato;Sin dato;Sin dato;Sin dato;Sin dato;Sin dato;Sin dato
2013-11-03 07:00:00;1.0;6.23461100000;-75.62632500000;Mujer;41;Soltero(a);Sin dato;Sin dato;Sin dato;Sin dato;Sin dato;Sin dato;Sin dato;Bachillerato;0;reincidencia violencia intrafamiliar;Daño psicológico;Sin dato;Sin dato;Sin dato;Sin dato;Sin dato;San Pablo A.V.;#7004;70;Residencia;Comisaría altavista;Sin dato;Sin dato;Sin dato;Sin dato;Sin dato;Sin dato;Sin dato
2013-11-04 23:00:00;1.0;6.21802600000;-75.59472100000;Mujer;42;Casado(a);Sin dato;Sin dato;Sin dato;Sin dato;Sin dato;Sin dato;Sin dato;Primaria;1;reincidencia violencia intrafamiliar;Daño psicológico;Sin dato;Sin dato;Sin dato;Sin dato;Sin dato;Diego Echavarría;#1607;16;Residencia;Comisaría 16 - belén;Sin dato;Sin dato;Sin dato;Sin dato;Sin dato;Sin dato;Sin dato
2013-11-04 20:00:00;1.0;6.23399100000;-75.61396500000;Mujer;48;Casado(a);Sin dato;Sin dato;Sin dato;Ama de casa;Sin dato;Sin dato;Sin dato;Bachillerato;1;reincidencia violencia intrafamiliar;Daño psicológico;Sin dato;Sin dato;Sin dato;Sin dato;Sin dato;Las Violetas;#1616;16;Residencia;Comisaría 16 - belén;Sin dato;Sin dato;Sin dato;Sin dato;Sin dato;Sin dato;Sin dato
2013-11-05 00:00:00;1.0;6.27630400000;-75.63645400000;Mujer;29;Soltero(a);Sin dato;Sin dato;Sin dato;Ama de casa;Sin dato;Sin dato;Sin dato;Bachillerato;1;reincidencia violencia intrafamiliar;Sin dato;Sin dato;Sin dato;Sin dato;Sin dato;Sin dato;Área Urbana Cgto. San Cristóbal;#AUC1;60;Residencia;Comisaría san cristobal;Sin dato;Sin dato;Sin dato;Sin dato;Sin dato;Sin dato;Sin dato
2013-11-05 08:00:00;1.0;6.24320800000;-75.55138000000;Mujer;23;Unión marital de hecho;Sin dato;Sin dato;Sin dato;Asesor;Sin dato;Sin dato;Sin dato;Técnica;1;reincidencia violencia intrafamiliar;Daño psicológico;Sin dato;Sin dato;Sin dato;Sin dato;Sin dato;Sucre;#0809;8;Residencia;Comisaría 8 - villa hermosa;Sin dato;Sin dato;Sin dato;Sin dato;Sin dato;Sin dato;Sin dato
2013-11-05 21:00:00;1.0;6.27927900000;-75.59058500000;Hombre;14;Soltero(a);Sin dato;Sin dato;Sin dato;Estudiante;Sin dato;Sin dato;Sin dato;Bachillerato;1;reincidencia violencia intrafamiliar;Daño psicológico;Sin dato;Sin dato;Sin dato;Sin dato;Sin dato;Villa Flora;#0715;7;Residencia;Comisaría 7 - comuna siete;Sin dato;Sin dato;Sin dato;Sin dato;Sin dato;Sin dato;Sin dato
2013-11-05 03:00:00;1.0;6.26311100000;-75.54729700000;Hombre;59;Soltero(a);Sin dato;Sin dato;Sin dato;Sin dato;Sin dato;Sin dato;Sin dato;Técnica;1;reincidencia violencia intrafamiliar;Daño psicológico;Sin dato;Sin dato;Sin dato;Sin dato;Sin dato;Manrique Oriental;#0308;3;Residencia;Comisaría 3 - manrique;Sin dato;Sin dato;Sin dato;Sin dato;Sin dato;Sin dato;Sin dato
2013-11-05 21:00:00;1.0;6.27927900000;-75.59058500000;Mujer;46;Unión marital de hecho;Sin dato;Sin dato;Sin dato;Ama de casa;Sin dato;Sin dato;Sin dato;Bachillerato;1;reincidencia violencia intrafamiliar;Daño psicológico;Sin dato;Sin dato;Sin dato;Sin dato;Sin dato;Villa Flora;#0715;7;Residencia;Comisaría 7 - comuna siete;Sin dato;Sin dato;Sin dato;Sin dato;Sin dato;Sin dato;Sin dato
2013-11-06 07:00:00;1.0;6.21202800000;-75.55286500000;Mujer;40;Casado(a);Sin dato;Sin dato;Sin dato;Médico;Sin dato;Sin dato;Sin dato;Universitario;1;reincidencia violencia intrafamiliar;Daño psicológico;Sin dato;Sin dato;Sin dato;Sin dato;Sin dato;Altos del Poblado;#1408;14;Residencia;Comisaría 14 - poblado;Sin dato;Sin dato;Sin dato;Sin dato;Sin dato;Sin dato;Sin dato
2013-11-06 12:00:00;1.0;6.18292500000;-75.65034300000;Mujer;42;Casado(a);Sin dato;Sin dato;Sin dato;Sin dato;Sin dato;Sin dato;Sin dato;Universitario;0;reincidencia violencia intrafamiliar;Física;Sin dato;Sin dato;Sin dato;Sin dato;Sin dato;Área Urbana Cgto. San Antonio de Prado;#AUC2;80;Residencia;Comisaría san antonio de prado;Sin dato;Sin dato;Sin dato;Sin dato;Sin dato;Sin dato;Sin dato
2013-11-07 07:00:00;1.0;6.21387000000;-75.60111500000;Mujer;72;Viudo(a);Sin dato;Sin dato;Sin dato;Ama de casa;Sin dato;Sin dato;Sin dato;Primaria;1;reincidencia violencia intrafamiliar;Daño psicológico;Sin dato;Sin dato;Sin dato;Sin dato;Sin dato;El Rincón;#1610;16;Residencia;Permanencia 3 belen;Sin dato;Sin dato;Sin dato;Sin dato;Sin dato;Sin dato;Sin dato
2013-11-11 12:00:00;1.0;6.17938600000;-75.64867000000;Mujer;41;Unión marital de hecho;Sin dato;Sin dato;Sin dato;Comerciante;Sin dato;Sin dato;Sin dato;Primaria;0;reincidencia violencia intrafamiliar;Maltrato;Sin dato;Sin dato;Sin dato;Sin dato;Sin dato;Área Urbana Cgto. San Antonio de Prado;#AUC2;80;Residencia;Comisaría san antonio de prado;Sin dato;Sin dato;Sin dato;Sin dato;Sin dato;Sin dato;Sin dato
2013-11-11 09:00:00;1.0;6.24412200000;-75.55319300000;Mujer;45;Soltero(a);Sin dato;Sin dato;Sin dato;Comerciante;Sin dato;Sin dato;Sin dato;Técnica;0;reincidencia violencia intrafamiliar;Física;Sin dato;Sin dato;Sin dato;Sin dato;Sin dato;Sucre;#0809;8;Residencia;Comisaría 10 - centro;Sin dato;Sin dato;Sin dato;Sin dato;Sin dato;Sin dato;Sin dato
2013-11-13 20:00:00;1.0;6.27651600000;-75.61611000000;Mujer;30;Unión marital de hecho;Sin dato;Sin dato;Sin dato;Ama de casa;Sin dato;Sin dato;Sin dato;Bachillerato;1;reincidencia violencia intrafamiliar;Maltrato;Sin dato;Sin dato;Sin dato;Sin dato;Sin dato;Santa Margarita;#0720;7;Residencia;Comisaría 7 - comuna siete;Sin dato;Sin dato;Sin dato;Sin dato;Sin dato;Sin dato;Sin dato
2013-11-14 06:00:00;1.0;6.31029200000;-75.57787400000;Mujer;37;Soltero(a);Sin dato;Sin dato;Sin dato;Asesor;Sin dato;Sin dato;Sin dato;Técnica;1;reincidencia violencia intrafamiliar;Daño psicológico;Sin dato;Sin dato;Sin dato;Sin dato;Sin dato;Doce de Octubre No.1;#0602;6;Residencia;Comisaría 6 - 12 de octubre;Sin dato;Sin dato;Sin dato;Sin dato;Sin dato;Sin dato;Sin dato
2013-11-18 12:00:00;1.0;6.17719600000;-75.64472100000;Mujer;57;Unión marital de hecho;Sin dato;Sin dato;Sin dato;Ama de casa;Sin dato;Sin dato;Sin dato;Primaria;1;reincidencia violencia intrafamiliar;Maltrato;Sin dato;Sin dato;Sin dato;Sin dato;Sin dato;Área Urbana Cgto. San Antonio de Prado;#AUC2;80;Residencia;Comisaría san antonio de prado;Sin dato;Sin dato;Sin dato;Sin dato;Sin dato;Sin dato;Sin dato
2013-11-18 22:00:00;1.0;6.26357900000;-75.54852800000;Hombre;54;Unión marital de hecho;Sin dato;Sin dato;Sin dato;Conductor;Sin dato;Sin dato;Sin dato;Bachillerato;0;reincidencia violencia intrafamiliar;Física;Sin dato;Sin dato;Sin dato;Sin dato;Sin dato;Manrique Oriental;#0308;3;Residencia;Comisaría 3 - manrique;Sin dato;Sin dato;Sin dato;Sin dato;Sin dato;Sin dato;Sin dato
2013-11-20 20:00:00;1.0;6.27085500000;-75.61378000000;Hombre;15;Soltero(a);Sin dato;Sin dato;Sin dato;Estudiante;Sin dato;Sin dato;Sin dato;Bachillerato;1;reincidencia violencia intrafamiliar;Sin dato;Sin dato;Sin dato;Arma cortopunzante;Sin dato;Sin dato;Juan XXIIIi la Quiebra;#1307;13;Residencia;Comisaría 13 - san javier;Sin dato;Sin dato;Sin dato;Sin dato;Sin dato;Sin dato;Sin dato
2013-11-20 20:00:00;1.0;6.27085500000;-75.61378000000;Mujer;42;Unión marital de hecho;Sin dato;Sin dato;Sin dato;Ama de casa;Sin dato;Sin dato;Sin dato;Primaria;1;reincidencia violencia intrafamiliar;Sin dato;Sin dato;Sin dato;Arma cortopunzante;Sin dato;Sin dato;Juan XXIIIi la Quiebra;#1307;13;Residencia;Comisaría 13 - san javier;Sin dato;Sin dato;Sin dato;Sin dato;Sin dato;Sin dato;Sin dato
2013-11-20 20:00:00;1.0;6.27085500000;-75.61378000000;Mujer;14;Soltero(a);Sin dato;Sin dato;Sin dato;Estudiante;Sin dato;Sin dato;Sin dato;Primaria;1;reincidencia violencia intrafamiliar;Sin dato;Sin dato;Sin dato;Arma cortopunzante;Sin dato;Sin dato;Juan XXIIIi la Quiebra;#1307;13;Residencia;Comisaría 13 - san javier;Sin dato;Sin dato;Sin dato;Sin dato;Sin dato;Sin dato;Sin dato
2013-11-24 18:00:00;1.0;6.26142300000;-75.58379400000;Mujer;43;Unión marital de hecho;Sin dato;Sin dato;Sin dato;Sin dato;Sin dato;Sin dato;Sin dato;Primaria;1;reincidencia violencia intrafamiliar;Maltrato;Sin dato;Sin dato;Sin dato;Sin dato;Sin dato;Nueva Villa de la Iguaná;#0725;7;Residencia;Comisaría 7 - comuna siete;Sin dato;Sin dato;Sin dato;Sin dato;Sin dato;Sin dato;Sin dato
2013-11-27 00:00:00;1.0;6.24031700000;-75.57088500000;Mujer;42;Casado(a);Sin dato;Sin dato;Sin dato;Comerciante;Sin dato;Sin dato;Sin dato;Bachillerato;1;reincidencia violencia intrafamiliar;Física;Sin dato;Sin dato;Sin dato;Sin dato;Sin dato;Barrio Colón;#1013;10;Residencia;Comisaría 12 - santa mónica;Sin dato;Sin dato;Sin dato;Sin dato;Sin dato;Sin dato;Sin dato
2013-11-30 15:00:00;1.0;6.30803400000;-75.58433600000;Mujer;28;Casado(a);Sin dato;Sin dato;Sin dato;Sin dato;Sin dato;Sin dato;Sin dato;Técnica;1;reincidencia violencia intrafamiliar;Física;Sin dato;Sin dato;Sin dato;Sin dato;Sin dato;El Triunfo;#0612;6;Residencia;Comisaría 6 - 12 de octubre;Sin dato;Sin dato;Sin dato;Sin dato;Sin dato;Sin dato;Sin dato
2013-12-01 12:00:00;1.0;6.18224600000;-75.64512900000;Mujer;61;Casado(a);Sin dato;Sin dato;Sin dato;Ama de casa;Sin dato;Sin dato;Sin dato;Primaria;0;reincidencia violencia intrafamiliar;Maltrato;Sin dato;Sin dato;Sin dato;Sin dato;Sin dato;Área Urbana Cgto. San Antonio de Prado;#AUC2;80;Residencia;Comisaría san antonio de prado;Sin dato;Sin dato;Sin dato;Sin dato;Sin dato;Sin dato;Sin dato
2013-12-01 12:00:00;1.0;6.18224600000;-75.64512900000;Hombre;21;Soltero(a);Sin dato;Sin dato;Sin dato;Sin dato;Sin dato;Sin dato;Sin dato;Universitario;0;reincidencia violencia intrafamiliar;Maltrato;Sin dato;Sin dato;Sin dato;Sin dato;Sin dato;Área Urbana Cgto. San Antonio de Prado;#AUC2;80;Residencia;Comisaría san antonio de prado;Sin dato;Sin dato;Sin dato;Sin dato;Sin dato;Sin dato;Sin dato
2013-12-01 15:00:00;1.0;6.26075300000;-75.56903600000;Mujer;37;Soltero(a);Sin dato;Sin dato;Sin dato;Estudiante;Sin dato;Sin dato;Sin dato;Universitario;1;reincidencia violencia intrafamiliar;Daño psicológico;Sin dato;Sin dato;Sin dato;Sin dato;Sin dato;Jesús Nazareno;#1003;10;Residencia;Comisaría 10 - centro;Sin dato;Sin dato;Sin dato;Sin dato;Sin dato;Sin dato;Sin dato
2013-12-01 15:00:00;1.0;6.26075300000;-75.56903600000;Mujer;37;Casado(a);Sin dato;Sin dato;Sin dato;Sin dato;Sin dato;Sin dato;Sin dato;Bachillerato;1;reincidencia violencia intrafamiliar;Daño psicológico;Sin dato;Sin dato;Sin dato;Sin dato;Sin dato;Jesús Nazareno;#1003;10;Residencia;Comisaría 10 - centro;Sin dato;Sin dato;Sin dato;Sin dato;Sin dato;Sin dato;Sin dato
2013-12-02 00:00:00;1.0;6.25531700000;-75.55786700000;Mujer;33;Divorciado(a);Sin dato;Sin dato;Sin dato;Sin dato;Sin dato;Sin dato;Sin dato;Universitario;1;reincidencia violencia intrafamiliar;Daño psicológico;Sin dato;Sin dato;Sin dato;Sin dato;Sin dato;San Miguel;#0803;8;Residencia;Comisaría 10 - centro;Sin dato;Sin dato;Sin dato;Sin dato;Sin dato;Sin dato;Sin dato
2013-12-04 07:00:00;1.0;6.24768300000;-75.59953200000;Mujer;32;Soltero(a);Sin dato;Sin dato;Sin dato;Sin dato;Sin dato;Sin dato;Sin dato;Bachillerato;1;reincidencia violencia intrafamiliar;Daño psicológico;Sin dato;Sin dato;Sin dato;Sin dato;Sin dato;Lorena;#1111;11;Almacén tienda y otro;Comisaría 15 - guayabal;Sin dato;Sin dato;Sin dato;Sin dato;Sin dato;Sin dato;Sin dato
2013-12-08 23:00:00;1.0;6.27395200000;-75.56478900000;Mujer;32;Soltero(a);Sin dato;Sin dato;Sin dato;Ama de casa;Sin dato;Sin dato;Sin dato;Bachillerato;1;reincidencia violencia intrafamiliar;Daño psicológico;Sin dato;Sin dato;Sin dato;Sin dato;Sin dato;Moravia;#0405;4;Residencia;Comisaría 4 - campo valdés;Sin dato;Sin dato;Sin dato;Sin dato;Sin dato;Sin dato;Sin dato
2013-12-15 23:00:00;1.0;6.28719000000;-75.55143400000;Mujer;31;Unión marital de hecho;Sin dato;Sin dato;Sin dato;Sin dato;Sin dato;Sin dato;Sin dato;Técnica;0;reincidencia violencia intrafamiliar;Física;Sin dato;Sin dato;Sin dato;Sin dato;Sin dato;Villa Guadalupe;#0106;1;Residencia;Comisaría 1 - comuna uno;Sin dato;Sin dato;Sin dato;Sin dato;Sin dato;Sin dato;Sin dato
2013-12-16 21:00:00;1.0;6.28907600000;-75.55883900000;Hombre;30;Soltero(a);Sin dato;Sin dato;Sin dato;Oficial construcción;Sin dato;Sin dato;Sin dato;Bachillerato;1;reincidencia violencia intrafamiliar;Física;Sin dato;Sin dato;Sin dato;Sin dato;Sin dato;San Isidro;#0402;4;Residencia;Comisaría 4 - campo valdés;Sin dato;Sin dato;Sin dato;Sin dato;Sin dato;Sin dato;Sin dato
2013-12-17 18:00:00;1.0;6.28210100000;-75.54828400000;Mujer;57;Unión marital de hecho;Sin dato;Sin dato;Sin dato;Ama de casa;Sin dato;Sin dato;Sin dato;Sin dato;1;reincidencia violencia intrafamiliar;Maltrato;Sin dato;Sin dato;Sin dato;Sin dato;Sin dato;La Salle;#0301;3;Residencia;Comisaría 3 - manrique;Sin dato;Sin dato;Sin dato;Sin dato;Sin dato;Sin dato;Sin dato
2013-12-17 18:00:00;1.0;6.28210100000;-75.54828400000;Mujer;57;Unión marital de hecho;Sin dato;Sin dato;Sin dato;Ama de casa;Sin dato;Sin dato;Sin dato;Sin dato;1;reincidencia violencia intrafamiliar;Maltrato;Sin dato;Sin dato;Sin dato;Sin dato;Sin dato;La Salle;#0301;3;Residencia;Comisaría 3 - manrique;Sin dato;Sin dato;Sin dato;Sin dato;Sin dato;Sin dato;Sin dato
2013-12-18 04:00:00;1.0;6.23135600000;-75.55316800000;Mujer;38;Unión marital de hecho;Sin dato;Sin dato;Sin dato;Ama de casa;Sin dato;Sin dato;Sin dato;Primaria;1;reincidencia violencia intrafamiliar;Maltrato;Sin dato;Sin dato;Sin dato;Sin dato;Sin dato;Cataluña;#0909;9;Residencia;Comisaría 9 - bueno aires;Sin dato;Sin dato;Sin dato;Sin dato;Sin dato;Sin dato;Sin dato
2013-12-18 13:00:00;1.0;6.24606700000;-75.55936200000;Mujer;32;Unión marital de hecho;Sin dato;Sin dato;Sin dato;Comerciante;Sin dato;Sin dato;Sin dato;Bachillerato;0;reincidencia violencia intrafamiliar;Daño psicológico;Sin dato;Sin dato;Sin dato;Sin dato;Sin dato;Boston;#1016;10;Residencia;Comisaría 10 - centro;Sin dato;Sin dato;Sin dato;Sin dato;Sin dato;Sin dato;Sin dato
2013-12-18 19:00:00;1.0;6.24038300000;-75.56407900000;Hombre;59;Unión marital de hecho;Sin dato;Sin dato;Sin dato;Sin dato;Sin dato;Sin dato;Sin dato;Bachillerato;1;reincidencia violencia intrafamiliar;Daño psicológico;Sin dato;Sin dato;Sin dato;Sin dato;Sin dato;Las Palmas;#1014;10;Residencia;Comisaría 10 - centro;Sin dato;Sin dato;Sin dato;Sin dato;Sin dato;Sin dato;Sin dato
2013-12-19 10:00:00;1.0;6.23095600000;-75.55425100000;Mujer;24;Soltero(a);Sin dato;Sin dato;Sin dato;Ama de casa;Sin dato;Sin dato;Sin dato;Bachillerato;0;reincidencia violencia intrafamiliar;Física;Sin dato;Sin dato;Sin dato;Sin dato;Sin dato;Loreto;#0913;9;Residencia;Comisaría 9 - bueno aires;Sin dato;Sin dato;Sin dato;Sin dato;Sin dato;Sin dato;Sin dato
2013-12-19 19:00:00;1.0;6.23385000000;-75.55857900000;Hombre;56;Casado(a);Sin dato;Sin dato;Sin dato;Conductor;Sin dato;Sin dato;Sin dato;Bachillerato;0;reincidencia violencia intrafamiliar;Física;Sin dato;Sin dato;Sin dato;Sin dato;Sin dato;Loreto;#0913;9;Residencia;Comisaría 9 - bueno aires;Sin dato;Sin dato;Sin dato;Sin dato;Sin dato;Sin dato;Sin dato
2013-12-20 20:00:00;1.0;NaN;NaN;Hombre;27;Soltero(a);Sin dato;Sin dato;Sin dato;Sin dato;Sin dato;Sin dato;Sin dato;Técnica;1;reincidencia violencia intrafamiliar;Física;Sin dato;Sin dato;Vehículo;Sin dato;Sin dato;Boston;#1016;10;Residencia;Comisaría 10 - centro;Sin dato;Sin dato;Sin dato;Sin dato;Sin dato;Sin dato;Sin dato
2013-12-20 23:00:00;1.0;6.21828300000;-75.59972700000;Mujer;48;Casado(a);Sin dato;Sin dato;Sin dato;Sin dato;Sin dato;Sin dato;Sin dato;Universitario;0;reincidencia violencia intrafamiliar;Daño psicológico;Sin dato;Sin dato;Sin dato;Sin dato;Sin dato;La Loma de los Bernal;#1611;16;Residencia;Comisaría 16 - belén;Sin dato;Sin dato;Sin dato;Sin dato;Sin dato;Sin dato;Sin dato
2013-12-23 08:00:00;1.0;NaN;NaN;Mujer;26;Casado(a);Sin dato;Sin dato;Sin dato;Auxiliar;Sin dato;Sin dato;Sin dato;Bachillerato;1;reincidencia violencia intrafamiliar;Física;Sin dato;Sin dato;Sin dato;Sin dato;Sin dato;Buenos Aires;#0907;9;Residencia;Comisaría 9 - bueno aires;Sin dato;Sin dato;Sin dato;Sin dato;Sin dato;Sin dato;Sin dato
2013-12-23 14:00:00;1.0;6.21195700000;-75.57014800000;Mujer;31;Casado(a);Sin dato;Sin dato;Sin dato;Sin dato;Sin dato;Sin dato;Sin dato;Universitario;1;reincidencia violencia intrafamiliar;Daño psicológico;Sin dato;Sin dato;Sin dato;Sin dato;Sin dato;Manila;#1419;14;Puesto de trabajo;Comisaría 7 - comuna siete;Sin dato;Sin dato;Sin dato;Sin dato;Sin dato;Sin dato;Sin dato
2013-12-25 21:00:00;1.0;6.29907100000;-75.57292900000;Mujer;57;Casado(a);Sin dato;Sin dato;Sin dato;Desempleado;Sin dato;Sin dato;Sin dato;Primaria;1;reincidencia violencia intrafamiliar;Daño psicológico;Sin dato;Sin dato;Sin dato;Sin dato;Sin dato;Pedregal;#0604;6;Residencia;Comisaría 6 - 12 de octubre;Sin dato;Sin dato;Sin dato;Sin dato;Sin dato;Sin dato;Sin dato
2013-12-25 03:00:00;1.0;6.27959500000;-75.60100900000;Mujer;52;Casado(a);Sin dato;Sin dato;Sin dato;Ama de casa;Sin dato;Sin dato;Sin dato;Bachillerato;1;reincidencia violencia intrafamiliar;Física;Sin dato;Sin dato;Sin dato;Sin dato;Sin dato;Cucaracho;#0718;7;Residencia;Comisaría 7 - comuna siete;Sin dato;Sin dato;Sin dato;Sin dato;Sin dato;Sin dato;Sin dato
2013-12-25 13:00:00;1.0;6.26744300000;-75.55477800000;Mujer;28;Casado(a);Sin dato;Sin dato;Sin dato;Cajero;Sin dato;Sin dato;Sin dato;Primaria;0;reincidencia violencia intrafamiliar;Física;Sin dato;Sin dato;Sin dato;Sin dato;Sin dato;El Pomar;#0306;3;Puesto de trabajo;Comisaría 3 - manrique;Sin dato;Sin dato;Sin dato;Sin dato;Sin dato;Sin dato;Sin dato
2013-12-28 15:00:00;1.0;NaN;NaN;Hombre;78;Casado(a);Sin dato;Sin dato;Sin dato;Pensionado/jubilado;Sin dato;Sin dato;Sin dato;Primaria;1;reincidencia violencia intrafamiliar;Daño psicológico;Sin dato;Sin dato;Sin dato;Sin dato;Sin dato;Antonio Nariño;#1318;13;Residencia;Comisaría 13 - san javier;Sin dato;Sin dato;Sin dato;Sin dato;Sin dato;Sin dato;Sin dato
2013-12-28 15:00:00;1.0;6.24252000000;-75.56174100000;Mujer;34;Soltero(a);Sin dato;Sin dato;Sin dato;Sin dato;Sin dato;Sin dato;Sin dato;Bachillerato;1;reincidencia violencia intrafamiliar;Maltrato;Sin dato;Sin dato;Objeto contundente;Sin dato;Sin dato;Bomboná No.1;#1015;10;Puesto de trabajo;Permanencia 1 el bosque;Sin dato;Sin dato;Sin dato;Sin dato;Sin dato;Sin dato;Sin dato
2013-12-30 16:00:00;1.0;6.20047300000;-75.59088700000;Mujer;48;Casado(a);Sin dato;Sin dato;Sin dato;Estilista/peluquero;Sin dato;Sin dato;Sin dato;Bachillerato;1;reincidencia violencia intrafamiliar;Daño psicológico;Sin dato;Sin dato;Sin dato;Sin dato;Sin dato;La Colina;#1511;15;Residencia;Comisaría 15 - guayabal;Sin dato;Sin dato;Sin dato;Sin dato;Sin dato;Sin dato;Sin dato
2013-12-30 15:00:00;1.0;6.28067700000;-75.58683100000;Mujer;26;Casado(a);Sin dato;Sin dato;Sin dato;Sin dato;Sin dato;Sin dato;Sin dato;Bachillerato;0;reincidencia violencia intrafamiliar;Maltrato;Sin dato;Sin dato;Sin dato;Sin dato;Sin dato;La Pilarica;#0706;7;Residencia;Comisaría 7 - comuna siete;Sin dato;Sin dato;Sin dato;Sin dato;Sin dato;Sin dato;Sin dato
2013-12-31 15:00:00;1.0;6.30196100000;-75.57345400000;Mujer;48;Casado(a);Sin dato;Sin dato;Sin dato;Ama de casa;Sin dato;Sin dato;Sin dato;Primaria;1;reincidencia violencia intrafamiliar;Daño psicológico;Sin dato;Sin dato;Sin dato;Sin dato;Sin dato;Pedregal;#0604;6;Residencia;Comisaría 6 - 12 de octubre;Sin dato;Sin dato;Sin dato;Sin dato;Sin dato;Sin dato;Sin dato
2013-12-31 20:00:00;1.0;6.26021400000;-75.56356400000;Hombre;79;Divorciado(a);Sin dato;Sin dato;Sin dato;Sin dato;Sin dato;Sin dato;Sin dato;Bachillerato;0;reincidencia violencia intrafamiliar;Física;Sin dato;Sin dato;Sin dato;Sin dato;Sin dato;Prado;#1001;10;Residencia;Comisaría 10 - centro;Sin dato;Sin dato;Sin dato;Sin dato;Sin dato;Sin dato;Sin dato
2014-01-01 00:00:00;1.0;NaN;NaN;Mujer;34;Casado(a);Sin dato;Sin dato;Sin dato;Ama de casa;Sin dato;Sin dato;Sin dato;Técnica;0;reincidencia violencia intrafamiliar;Física;Sin dato;Sin dato;Sin dato;Sin dato;Sin dato;Manrique Oriental;#0308;3;Residencia;Comisaría 3 - manrique;Sin dato;Sin dato;Sin dato;Sin dato;Sin dato;Sin dato;Sin dato
2014-01-01 10:00:00;1.0;6.28912200000;-75.58983000000;Mujer;49;Casado(a);Sin dato;Sin dato;Sin dato;Ama de casa;Sin dato;Sin dato;Sin dato;Primaria;1;reincidencia violencia intrafamiliar;Maltrato;Sin dato;Sin dato;Sin dato;Sin dato;Sin dato;Aures No.2;#0712;7;Residencia;Comisaría 7 - comuna siete;Sin dato;Sin dato;Sin dato;Sin dato;Sin dato;Sin dato;Sin dato
2014-01-02 15:00:00;1.0;NaN;NaN;Mujer;33;Soltero(a);Sin dato;Sin dato;Sin dato;Ama de casa;Sin dato;Sin dato;Sin dato;Primaria;0;reincidencia violencia intrafamiliar;Daño psicológico;Sin dato;Sin dato;Sin dato;Sin dato;Sin dato;Robledo;#0717;7;Residencia;Comisaría 7 - comuna siete;Sin dato;Sin dato;Sin dato;Sin dato;Sin dato;Sin dato;Sin dato
2014-01-03 00:00:00;1.0;6.24529400000;-75.61171900000;Mujer;59;Casado(a);Sin dato;Sin dato;Sin dato;Ama de casa;Sin dato;Sin dato;Sin dato;Bachillerato;1;reincidencia violencia intrafamiliar;Sin dato;Sin dato;Sin dato;Sin dato;Sin dato;Sin dato;Santa Teresita;#1212;12;Residencia;Comisaría 12 - santa mónica;Sin dato;Sin dato;Sin dato;Sin dato;Sin dato;Sin dato;Sin dato
2014-01-04 18:00:00;1.0;6.26055800000;-75.62164900000;Hombre;31;Unión marital de hecho;Sin dato;Sin dato;Sin dato;Sin dato;Sin dato;Sin dato;Sin dato;Primaria;1;reincidencia violencia intrafamiliar;Daño psicológico;Sin dato;Sin dato;Objeto contundente;Sin dato;Sin dato;Antonio Nariño;#1318;13;Residencia;Permanencia 1 el bosque;Sin dato;Sin dato;Sin dato;Sin dato;Sin dato;Sin dato;Sin dato
2014-01-04 12:00:00;1.0;6.24104500000;-75.56505400000;Mujer;59;Divorciado(a);Sin dato;Sin dato;Sin dato;Ama de casa;Sin dato;Sin dato;Sin dato;Bachillerato;1;reincidencia violencia intrafamiliar;Física;Sin dato;Sin dato;Sin dato;Sin dato;Sin dato;Las Palmas;#1014;10;Residencia;Comisaría 10 - centro;Sin dato;Sin dato;Sin dato;Sin dato;Sin dato;Sin dato;Sin dato
2014-01-06 17:00:00;1.0;NaN;NaN;Mujer;22;Soltero(a);Sin dato;Sin dato;Sin dato;Estudiante;Sin dato;Sin dato;Sin dato;Bachillerato;0;reincidencia violencia intrafamiliar;Daño psicológico;Sin dato;Sin dato;Sin dato;Sin dato;Sin dato;Sin dato;SIN DATO;SIN DATO;Sin dato;Comisaría 9 - bueno aires;Sin dato;Sin dato;Sin dato;Sin dato;Sin dato;Sin dato;Sin dato
2014-01-06 19:00:00;1.0;6.26633900000;-75.54974400000;Hombre;75;Viudo(a);Sin dato;Sin dato;Sin dato;Desempleado;Sin dato;Sin dato;Sin dato;Bachillerato;1;reincidencia violencia intrafamiliar;Maltrato;Sin dato;Sin dato;Sin dato;Sin dato;Sin dato;Manrique Oriental;#0308;3;Residencia;Comisaría 3 - manrique;Sin dato;Sin dato;Sin dato;Sin dato;Sin dato;Sin dato;Sin dato
2014-01-07 07:00:00;1.0;NaN;NaN;Mujer;40;Unión marital de hecho;Sin dato;Sin dato;Sin dato;Comerciante;Sin dato;Sin dato;Sin dato;Técnica;0;reincidencia violencia intrafamiliar;Física;Sin dato;Sin dato;Sin dato;Sin dato;Sin dato;Sin dato 80 San Antonio de Prado;SIN DATO 80 SAN ANTONIO DE PRADO;80;Residencia;Comisaría san antonio de prado;Sin dato;Sin dato;Sin dato;Sin dato;Sin dato;Sin dato;Sin dato
2014-01-07 18:00:00;1.0;6.20005300000;-75.59279600000;Mujer;39;Soltero(a);Sin dato;Sin dato;Sin dato;Ama de casa;Sin dato;Sin dato;Sin dato;Técnica;0;reincidencia violencia intrafamiliar;Daño psicológico;Sin dato;Sin dato;Sin dato;Sin dato;Sin dato;La Colina;#1511;15;Residencia;Comisaría 15 - guayabal;Sin dato;Sin dato;Sin dato;Sin dato;Sin dato;Sin dato;Sin dato
2014-01-07 10:00:00;1.0;6.28197300000;-75.58982900000;Mujer;14;Soltero(a);Sin dato;Sin dato;Sin dato;Estudiante;Sin dato;Sin dato;Sin dato;Bachillerato;1;reincidencia violencia intrafamiliar;Daño psicológico;Sin dato;Sin dato;Sin dato;Sin dato;Sin dato;Bello Horizonte;#0714;7;Residencia;Comisaría 7 - comuna siete;Sin dato;Sin dato;Sin dato;Sin dato;Sin dato;Sin dato;Sin dato
2014-01-07 10:00:00;1.0;6.28197300000;-75.58982900000;Hombre;4;Soltero(a);Sin dato;Sin dato;Sin dato;Sin dato;Sin dato;Sin dato;Sin dato;Sin dato;1;reincidencia violencia intrafamiliar;Daño psicológico;Sin dato;Sin dato;Sin dato;Sin dato;Sin dato;Bello Horizonte;#0714;7;Residencia;Comisaría 7 - comuna siete;Sin dato;Sin dato;Sin dato;Sin dato;Sin dato;Sin dato;Sin dato
2014-01-07 10:00:00;1.0;6.28197300000;-75.58982900000;Mujer;14;Soltero(a);Sin dato;Sin dato;Sin dato;Estudiante;Sin dato;Sin dato;Sin dato;Bachillerato;1;reincidencia violencia intrafamiliar;Daño psicológico;Sin dato;Sin dato;Sin dato;Sin dato;Sin dato;Bello Horizonte;#0714;7;Residencia;Comisaría 7 - comuna siete;Sin dato;Sin dato;Sin dato;Sin dato;Sin dato;Sin dato;Sin dato
2014-01-07 10:00:00;1.0;6.28197300000;-75.58982900000;Hombre;41;Casado(a);Sin dato;Sin dato;Sin dato;Policía;Sin dato;Sin dato;Sin dato;Bachillerato;1;reincidencia violencia intrafamiliar;Daño psicológico;Sin dato;Sin dato;Sin dato;Sin dato;Sin dato;Bello Horizonte;#0714;7;Residencia;Comisaría 7 - comuna siete;Sin dato;Sin dato;Sin dato;Sin dato;Sin dato;Sin dato;Sin dato
2014-01-08 13:00:00;1.0;6.30737100000;-75.57399800000;Mujer;51;Casado(a);Sin dato;Sin dato;Sin dato;Estilista/peluquero;Sin dato;Sin dato;Sin dato;Bachillerato;1;reincidencia violencia intrafamiliar;Daño psicológico;Sin dato;Sin dato;Sin dato;Sin dato;Sin dato;Santander;#0601;6;Residencia;Comisaría 6 - 12 de octubre;Sin dato;Sin dato;Sin dato;Sin dato;Sin dato;Sin dato;Sin dato
2014-01-08 00:00:00;1.0;6.25489200000;-75.55380000000;Mujer;45;Divorciado(a);Sin dato;Sin dato;Sin dato;Docente;Sin dato;Sin dato;Sin dato;Universitario;-1;reincidencia violencia intrafamiliar;Daño psicológico;Sin dato;Sin dato;Sin dato;Sin dato;Sin dato;San Miguel;#0803;8;Residencia;Comisaría 8 - villa hermosa;Sin dato;Sin dato;Sin dato;Sin dato;Sin dato;Sin dato;Sin dato
2014-01-09 21:00:00;1.0;6.30550200000;-75.57926600000;Mujer;49;Casado(a);Sin dato;Sin dato;Sin dato;Vendedor;Sin dato;Sin dato;Sin dato;Primaria;0;reincidencia violencia intrafamiliar;Sexual;Sin dato;Sin dato;Sin dato;Sin dato;Sin dato;Doce de Octubre No.1;#0602;6;Residencia;Comisaría 6 - 12 de octubre;Sin dato;Sin dato;Sin dato;Sin dato;Sin dato;Sin dato;Sin dato
2014-01-11 00:00:00;1.0;NaN;NaN;Hombre;37;Soltero(a);Sin dato;Sin dato;Sin dato;Sin dato;Sin dato;Sin dato;Sin dato;Bachillerato;1;reincidencia violencia intrafamiliar;Física;Sin dato;Sin dato;Sin dato;Sin dato;Sin dato;Villa Hermosa;#0801;8;Residencia;Comisaría 8 - villa hermosa;Sin dato;Sin dato;Sin dato;Sin dato;Sin dato;Sin dato;Sin dato
2014-01-12 20:00:00;1.0;6.23176900000;-75.55442400000;Mujer;23;Soltero(a);Sin dato;Sin dato;Sin dato;Sin dato;Sin dato;Sin dato;Sin dato;Bachillerato;0;reincidencia violencia intrafamiliar;Daño psicológico;Sin dato;Sin dato;Sin dato;Sin dato;Sin dato;Loreto;#0913;9;Residencia;Comisaría 9 - bueno aires;Sin dato;Sin dato;Sin dato;Sin dato;Sin dato;Sin dato;Sin dato
2014-01-13 19:00:00;1.0;6.25078400000;-75.56862000000;Hombre;26;Soltero(a);Sin dato;Sin dato;Sin dato;Comerciante;Sin dato;Sin dato;Sin dato;Técnica;1;reincidencia violencia intrafamiliar;Física;Sin dato;Sin dato;Arma cortopunzante;Sin dato;Sin dato;La Candelaria;#1019;10;Institución educativa (jardín, primaria o secundaria);Comisaría 10 - centro;Sin dato;Sin dato;Sin dato;Sin dato;Sin dato;Sin dato;Sin dato
2014-01-13 18:00:00;1.0;6.26709600000;-75.55853100000;Mujer;42;Soltero(a);Sin dato;Sin dato;Sin dato;Asesor;Sin dato;Sin dato;Sin dato;Técnica;0;reincidencia violencia intrafamiliar;Daño psicológico;Sin dato;Sin dato;Sin dato;Sin dato;Sin dato;Manrique Central No.1;#0409;4;Residencia;Comisaría 4 - campo valdés;Sin dato;Sin dato;Sin dato;Sin dato;Sin dato;Sin dato;Sin dato
2014-01-14 23:00:00;1.0;6.23674400000;-75.58462100000;Mujer;42;Casado(a);Sin dato;Sin dato;Sin dato;Auxiliar;Sin dato;Sin dato;Sin dato;Técnica;0;reincidencia violencia intrafamiliar;Daño psicológico;Sin dato;Sin dato;Sin dato;Sin dato;Sin dato;Fátima;#1601;16;Residencia;Comisaría 16 - belén;Sin dato;Sin dato;Sin dato;Sin dato;Sin dato;Sin dato;Sin dato
2014-01-15 03:00:00;1.0;6.27894800000;-75.56443200000;Hombre;55;Casado(a);Sin dato;Sin dato;Sin dato;Conductor;Sin dato;Sin dato;Sin dato;Primaria;1;reincidencia violencia intrafamiliar;Física;Sin dato;Sin dato;Sin dato;Sin dato;Sin dato;Bermejal-Los Alamos;#0404;4;Vía pública;Comisaría 4 - campo valdés;Sin dato;Sin dato;Sin dato;Sin dato;Sin dato;Sin dato;Sin dato
2014-01-19 22:00:00;1.0;6.24845800000;-75.55249600000;Mujer;37;Casado(a);Sin dato;Sin dato;Sin dato;Sin dato;Sin dato;Sin dato;Sin dato;Bachillerato;1;reincidencia violencia intrafamiliar;Física;Sin dato;Sin dato;Sin dato;Sin dato;Sin dato;Enciso;#0808;8;Residencia;Comisaría 8 - villa hermosa;Sin dato;Sin dato;Sin dato;Sin dato;Sin dato;Sin dato;Sin dato
2014-01-19 11:00:00;1.0;6.28725100000;-75.54763100000;Mujer;22;Casado(a);Sin dato;Sin dato;Sin dato;Sin dato;Sin dato;Sin dato;Sin dato;Primaria;1;reincidencia violencia intrafamiliar;Física;Sin dato;Sin dato;Sin dato;Sin dato;Sin dato;San Pablo;#0107;1;Residencia;Comisaría 1 - comuna uno;Sin dato;Sin dato;Sin dato;Sin dato;Sin dato;Sin dato;Sin dato
2014-01-20 10:00:00;1.0;6.30190500000;-75.58415000000;Mujer;79;Viudo(a);Sin dato;Sin dato;Sin dato;Ama de casa;Sin dato;Sin dato;Sin dato;Sin dato;0;reincidencia violencia intrafamiliar;Física;Sin dato;Sin dato;Sin dato;Sin dato;Sin dato;Picachito;#0609;6;Residencia;Comisaría 6 - 12 de octubre;Sin dato;Sin dato;Sin dato;Sin dato;Sin dato;Sin dato;Sin dato
2014-01-22 22:00:00;1.0;NaN;NaN;Mujer;31;Unión marital de hecho;Sin dato;Sin dato;Sin dato;Sin dato;Sin dato;Sin dato;Sin dato;Bachillerato;1;reincidencia violencia intrafamiliar;Daño psicológico;Sin dato;Sin dato;Sin dato;Sin dato;Sin dato;Llanaditas;#0806;8;Residencia;Comisaría 8 - villa hermosa;Sin dato;Sin dato;Sin dato;Sin dato;Sin dato;Sin dato;Sin dato
2014-01-22 04:00:00;1.0;6.24757200000;-75.56610100000;Mujer;66;Divorciado(a);Sin dato;Sin dato;Sin dato;Ama de casa;Sin dato;Sin dato;Sin dato;Primaria;0;reincidencia violencia intrafamiliar;Maltrato;Sin dato;Sin dato;Sin dato;Sin dato;Sin dato;La Candelaria;#1019;10;Sin dato;Comisaría 10 - centro;Sin dato;Sin dato;Sin dato;Sin dato;Sin dato;Sin dato;Sin dato
2014-01-22 09:00:00;1.0;6.24331400000;-75.58423100000;Mujer;36;Casado(a);Sin dato;Sin dato;Sin dato;Estilista/peluquero;Sin dato;Sin dato;Sin dato;Bachillerato;1;reincidencia violencia intrafamiliar;Maltrato;Sin dato;Sin dato;Sin dato;Sin dato;Sin dato;Los Conquistadores;#1105;11;Almacén tienda y otro;Comisaría 12 - santa mónica;Sin dato;Sin dato;Sin dato;Sin dato;Sin dato;Sin dato;Sin dato
2014-01-27 14:00:00;1.0;6.24116100000;-75.56512600000;Hombre;53;Casado(a);Sin dato;Sin dato;Sin dato;Mensajero;Sin dato;Sin dato;Sin dato;Bachillerato;0;reincidencia violencia intrafamiliar;Daño psicológico;Sin dato;Sin dato;Sin dato;Sin dato;Sin dato;Las Palmas;#1014;10;Residencia;Comisaría 10 - centro;Sin dato;Sin dato;Sin dato;Sin dato;Sin dato;Sin dato;Sin dato
2014-01-27 00:00:00;1.0;6.30563300000;-75.55632600000;Mujer;32;Unión marital de hecho;Sin dato;Sin dato;Sin dato;Sin dato;Sin dato;Sin dato;Sin dato;Bachillerato;1;reincidencia violencia intrafamiliar;Física;Sin dato;Sin dato;Sin dato;Sin dato;Sin dato;La Frontera;#0204;2;Residencia;Comisaría 2 - villa del socorro;Sin dato;Sin dato;Sin dato;Sin dato;Sin dato;Sin dato;Sin dato
2014-01-27 19:00:00;1.0;6.23040600000;-75.55967600000;Mujer;39;Casado(a);Sin dato;Sin dato;Sin dato;Sin dato;Sin dato;Sin dato;Sin dato;Bachillerato;1;reincidencia violencia intrafamiliar;Daño psicológico;Sin dato;Sin dato;Sin dato;Sin dato;Sin dato;Loreto;#0913;9;Residencia;Comisaría 9 - bueno aires;Sin dato;Sin dato;Sin dato;Sin dato;Sin dato;Sin dato;Sin dato
2014-01-28 16:00:00;1.0;6.26724800000;-75.55536900000;Mujer;53;Soltero(a);Sin dato;Sin dato;Sin dato;Ama de casa;Sin dato;Sin dato;Sin dato;Técnica;1;reincidencia violencia intrafamiliar;Física;Sin dato;Sin dato;Sin dato;Sin dato;Sin dato;Manrique Central No.1;#0409;4;Vía pública;Comisaría 4 - campo valdés;Sin dato;Sin dato;Sin dato;Sin dato;Sin dato;Sin dato;Sin dato
2014-01-31 19:00:00;1.0;NaN;NaN;Mujer;35;Unión marital de hecho;Sin dato;Sin dato;Sin dato;Ama de casa;Sin dato;Sin dato;Sin dato;Primaria;0;reincidencia violencia intrafamiliar;Física;Sin dato;Sin dato;Sin dato;Sin dato;Sin dato;Sin dato 80 San Antonio de Prado;SIN DATO 80 SAN ANTONIO DE PRADO;80;Residencia;Comisaría san antonio de prado;Sin dato;Sin dato;Sin dato;Sin dato;Sin dato;Sin dato;Sin dato
2014-01-31 11:00:00;1.0;6.30281600000;-75.57058400000;Mujer;47;Soltero(a);Sin dato;Sin dato;Sin dato;Auxiliar;Sin dato;Sin dato;Sin dato;Técnica;1;reincidencia violencia intrafamiliar;Física;Sin dato;Sin dato;Sin dato;Sin dato;Sin dato;Pedregal;#0604;6;Residencia;Comisaría 6 - 12 de octubre;Sin dato;Sin dato;Sin dato;Sin dato;Sin dato;Sin dato;Sin dato
2014-01-31 11:00:00;1.0;6.30281600000;-75.57058400000;Hombre;20;Soltero(a);Sin dato;Sin dato;Sin dato;Estudiante;Sin dato;Sin dato;Sin dato;Bachillerato;1;reincidencia violencia intrafamiliar;Física;Sin dato;Sin dato;Sin dato;Sin dato;Sin dato;Pedregal;#0604;6;Residencia;Comisaría 6 - 12 de octubre;Sin dato;Sin dato;Sin dato;Sin dato;Sin dato;Sin dato;Sin dato
2014-01-31 10:00:00;1.0;6.22542300000;-75.58451700000;Mujer;30;Soltero(a);Sin dato;Sin dato;Sin dato;Ama de casa;Sin dato;Sin dato;Sin dato;Bachillerato;1;reincidencia violencia intrafamiliar;Daño psicológico;Sin dato;Sin dato;Sin dato;Sin dato;Sin dato;Trinidad;#1503;15;Residencia;Comisaría 15 - guayabal;Sin dato;Sin dato;Sin dato;Sin dato;Sin dato;Sin dato;Sin dato
2014-02-02 00:00:00;1.0;NaN;NaN;Mujer;33;Soltero(a);Sin dato;Sin dato;Sin dato;Vendedor;Sin dato;Sin dato;Sin dato;Sin dato;1;reincidencia violencia intrafamiliar;Daño psicológico;Sin dato;Sin dato;Sin dato;Sin dato;Sin dato;Sin dato 80 San Antonio de Prado;SIN DATO 80 SAN ANTONIO DE PRADO;80;Vía pública;Comisaría san antonio de prado;Sin dato;Sin dato;Sin dato;Sin dato;Sin dato;Sin dato;Sin dato
2014-02-02 13:00:00;1.0;6.28574600000;-75.54780500000;Mujer;26;Soltero(a);Sin dato;Sin dato;Sin dato;Sin dato;Sin dato;Sin dato;Sin dato;Bachillerato;1;reincidencia violencia intrafamiliar;Daño psicológico;Sin dato;Sin dato;Objeto contundente;Sin dato;Sin dato;San Pablo;#0107;1;Puesto de trabajo;Permanencia 1 el bosque;Sin dato;Sin dato;Sin dato;Sin dato;Sin dato;Sin dato;Sin dato
2014-02-02 13:00:00;1.0;6.21106100000;-75.58508200000;Mujer;22;Soltero(a);Sin dato;Sin dato;Sin dato;Asesor;Sin dato;Sin dato;Sin dato;Técnica;1;reincidencia violencia intrafamiliar;Física;Sin dato;Sin dato;Sin dato;Sin dato;Sin dato;Campo Amor;#1507;15;Residencia;Comisaría 15 - guayabal;Sin dato;Sin dato;Sin dato;Sin dato;Sin dato;Sin dato;Sin dato
2014-02-02 02:00:00;1.0;6.30646500000;-75.58453000000;Hombre;31;Unión marital de hecho;Sin dato;Sin dato;Sin dato;Sin dato;Sin dato;Sin dato;Sin dato;Bachillerato;1;reincidencia violencia intrafamiliar;Daño psicológico;Sin dato;Sin dato;Sin dato;Sin dato;Sin dato;El Triunfo;#0612;6;Vía pública;Comisaría 6 - 12 de octubre;Sin dato;Sin dato;Sin dato;Sin dato;Sin dato;Sin dato;Sin dato
2014-02-02 19:00:00;1.0;6.22139200000;-75.58804100000;Mujer;46;Divorciado(a);Sin dato;Sin dato;Sin dato;Sin dato;Sin dato;Sin dato;Sin dato;Universitario;0;reincidencia violencia intrafamiliar;Daño psicológico;Sin dato;Sin dato;Sin dato;Sin dato;Sin dato;Santa Fé;#1504;15;Residencia;Comisaría 15 - guayabal;Sin dato;Sin dato;Sin dato;Sin dato;Sin dato;Sin dato;Sin dato
2014-02-03 00:00:00;1.0;6.29609800000;-75.58323100000;Mujer;62;Unión marital de hecho;Sin dato;Sin dato;Sin dato;Vendedor;Sin dato;Sin dato;Sin dato;Primaria;1;reincidencia violencia intrafamiliar;Daño psicológico;Sin dato;Sin dato;Sin dato;Sin dato;Sin dato;Picacho;#0608;6;Residencia;Comisaría 6 - 12 de octubre;Sin dato;Sin dato;Sin dato;Sin dato;Sin dato;Sin dato;Sin dato
2014-02-04 14:00:00;1.0;NaN;NaN;Mujer;31;Soltero(a);Sin dato;Sin dato;Sin dato;Sin dato;Sin dato;Sin dato;Sin dato;Técnica;0;reincidencia violencia intrafamiliar;Daño psicológico;Sin dato;Sin dato;Sin dato;Sin dato;Sin dato;Trinidad;#1503;15;Almacén tienda y otro;Comisaría 15 - guayabal;Sin dato;Sin dato;Sin dato;Sin dato;Sin dato;Sin dato;Sin dato
2014-02-05 12:00:00;1.0;6.27411800000;-75.55107800000;Mujer;19;Soltero(a);Sin dato;Sin dato;Sin dato;Ama de casa;Sin dato;Sin dato;Sin dato;Bachillerato;1;reincidencia violencia intrafamiliar;Maltrato;Sin dato;Sin dato;Sin dato;Sin dato;Sin dato;Campo Valdés No.2;#0303;3;Residencia;Comisaría 3 - manrique;Sin dato;Sin dato;Sin dato;Sin dato;Sin dato;Sin dato;Sin dato
2014-02-05 12:00:00;1.0;6.30522300000;-75.57589900000;Mujer;50;Unión marital de hecho;Sin dato;Sin dato;Sin dato;Ama de casa;Sin dato;Sin dato;Sin dato;Bachillerato;0;reincidencia violencia intrafamiliar;Daño psicológico;Sin dato;Sin dato;Sin dato;Sin dato;Sin dato;Santander;#0601;6;Residencia;Comisaría 6 - 12 de octubre;Sin dato;Sin dato;Sin dato;Sin dato;Sin dato;Sin dato;Sin dato
2014-02-06 11:00:00;1.0;6.25277000000;-75.59823900000;Hombre;76;Unión marital de hecho;Sin dato;Sin dato;Sin dato;Contador;Sin dato;Sin dato;Sin dato;Universitario;0;reincidencia violencia intrafamiliar;Física;Sin dato;Sin dato;Sin dato;Sin dato;Sin dato;Los Pinos;#1203;12;Residencia;Comisaría 12 - santa mónica;Sin dato;Sin dato;Sin dato;Sin dato;Sin dato;Sin dato;Sin dato
2014-02-08 02:00:00;1.0;6.30736800000;-75.57284400000;Mujer;42;Soltero(a);Sin dato;Sin dato;Sin dato;Obrero;Sin dato;Sin dato;Sin dato;Primaria;1;reincidencia violencia intrafamiliar;Daño psicológico;Sin dato;Sin dato;Sin dato;Sin dato;Sin dato;Santander;#0601;6;Residencia;Comisaría 6 - 12 de octubre;Sin dato;Sin dato;Sin dato;Sin dato;Sin dato;Sin dato;Sin dato
2014-02-09 14:00:00;1.0;6.22469200000;-75.58523900000;Mujer;77;Soltero(a);Sin dato;Sin dato;Sin dato;Ama de casa;Sin dato;Sin dato;Sin dato;Primaria;0;reincidencia violencia intrafamiliar;Daño psicológico;Sin dato;Sin dato;Sin dato;Sin dato;Sin dato;Trinidad;#1503;15;Residencia;Comisaría 15 - guayabal;Sin dato;Sin dato;Sin dato;Sin dato;Sin dato;Sin dato;Sin dato
2014-02-09 17:00:00;1.0;6.23554300000;-75.61533600000;Hombre;61;Soltero(a);Sin dato;Sin dato;Sin dato;Docente;Sin dato;Sin dato;Sin dato;Universitario;1;reincidencia violencia intrafamiliar;Maltrato;Sin dato;Sin dato;Arma cortopunzante;Sin dato;Sin dato;Las Violetas;#1616;16;Residencia;Permanencia 3 belen;Sin dato;Sin dato;Sin dato;Sin dato;Sin dato;Sin dato;Sin dato
2014-02-11 20:00:00;1.0;6.22747900000;-75.54128500000;Mujer;39;Soltero(a);Sin dato;Sin dato;Sin dato;Contador;Sin dato;Sin dato;Sin dato;Universitario;1;reincidencia violencia intrafamiliar;Daño psicológico;Sin dato;Sin dato;Sin dato;Sin dato;Sin dato;Bomboná No.2;#0903;9;Residencia;Comisaría 9 - bueno aires;Sin dato;Sin dato;Sin dato;Sin dato;Sin dato;Sin dato;Sin dato
2014-02-13 13:00:00;1.0;NaN;NaN;Mujer;44;Soltero(a);Sin dato;Sin dato;Sin dato;Ama de casa;Sin dato;Sin dato;Sin dato;Universitario;0;reincidencia violencia intrafamiliar;Daño psicológico;Sin dato;Sin dato;Sin dato;Sin dato;Sin dato;Los Conquistadores;#1105;11;Residencia;Comisaría 11 - floresta;Sin dato;Sin dato;Sin dato;Sin dato;Sin dato;Sin dato;Sin dato
2014-02-13 00:00:00;1.0;6.27554500000;-75.63923500000;Mujer;56;Unión marital de hecho;Sin dato;Sin dato;Sin dato;Ama de casa;Sin dato;Sin dato;Sin dato;Bachillerato;1;reincidencia violencia intrafamiliar;Sin dato;Sin dato;Sin dato;Sin dato;Sin dato;Sin dato;La Palma S.C.;#6001;60;Residencia;Comisaría san cristobal;Sin dato;Sin dato;Sin dato;Sin dato;Sin dato;Sin dato;Sin dato
2014-02-13 18:00:00;1.0;6.21397200000;-75.58365100000;Mujer;35;Casado(a);Sin dato;Sin dato;Sin dato;Cocinero;Sin dato;Sin dato;Sin dato;Técnica;1;reincidencia violencia intrafamiliar;Daño psicológico;Sin dato;Sin dato;Sin dato;Sin dato;Sin dato;Campo Amor;#1507;15;Residencia;Comisaría 15 - guayabal;Sin dato;Sin dato;Sin dato;Sin dato;Sin dato;Sin dato;Sin dato
2014-02-14 19:00:00;1.0;NaN;NaN;Mujer;21;Soltero(a);Sin dato;Sin dato;Sin dato;Sin dato;Sin dato;Sin dato;Sin dato;Bachillerato;1;reincidencia violencia intrafamiliar;Daño psicológico;Sin dato;Sin dato;Sin dato;Sin dato;Sin dato;El Salvador;#0912;9;Residencia;Comisaría 9 - bueno aires;Sin dato;Sin dato;Sin dato;Sin dato;Sin dato;Sin dato;Sin dato
2014-02-14 20:00:00;1.0;NaN;NaN;Mujer;21;Unión marital de hecho;Sin dato;Sin dato;Sin dato;Ama de casa;Sin dato;Sin dato;Sin dato;Bachillerato;0;reincidencia violencia intrafamiliar;Física;Sin dato;Sin dato;Sin dato;Sin dato;Sin dato;Doce de Octubre No.1;#0602;6;Residencia;Comisaría 6 - 12 de octubre;Sin dato;Sin dato;Sin dato;Sin dato;Sin dato;Sin dato;Sin dato
2014-02-14 16:00:00;1.0;6.18546100000;-75.57022200000;Mujer;45;Unión marital de hecho;Sin dato;Sin dato;Sin dato;Ama de casa;Sin dato;Sin dato;Sin dato;Bachillerato;1;reincidencia violencia intrafamiliar;Maltrato;Sin dato;Sin dato;Sin dato;Sin dato;Sin dato;El Diamante No.2;#1413;14;Residencia;Comisaría 14 - poblado;Sin dato;Sin dato;Sin dato;Sin dato;Sin dato;Sin dato;Sin dato
2014-02-14 16:00:00;1.0;6.18546100000;-75.57022200000;Mujer;45;Unión marital de hecho;Sin dato;Sin dato;Sin dato;Ama de casa;Sin dato;Sin dato;Sin dato;Sin dato;1;reincidencia violencia intrafamiliar;Maltrato;Sin dato;Sin dato;Sin dato;Sin dato;Sin dato;El Diamante No.2;#1413;14;Residencia;Comisaría 14 - poblado;Sin dato;Sin dato;Sin dato;Sin dato;Sin dato;Sin dato;Sin dato
2014-02-15 11:00:00;1.0;6.25975100000;-75.54787600000;Mujer;43;Casado(a);Sin dato;Sin dato;Sin dato;Ama de casa;Sin dato;Sin dato;Sin dato;Bachillerato;1;reincidencia violencia intrafamiliar;Maltrato;Sin dato;Sin dato;Sin dato;Sin dato;Sin dato;Batallón Girardot;#0805;8;Residencia;Permanencia 1 el bosque;Sin dato;Sin dato;Sin dato;Sin dato;Sin dato;Sin dato;Sin dato
2014-02-15 21:00:00;1.0;6.28447200000;-75.55985200000;Mujer;34;Casado(a);Sin dato;Sin dato;Sin dato;Ingeniero;Sin dato;Sin dato;Sin dato;Universitario;0;reincidencia violencia intrafamiliar;Física;Sin dato;Sin dato;Sin dato;Sin dato;Sin dato;San Isidro;#0402;4;Residencia;Comisaría 4 - campo valdés;Sin dato;Sin dato;Sin dato;Sin dato;Sin dato;Sin dato;Sin dato
2014-02-15 16:00:00;1.0;6.24109600000;-75.56509200000;Mujer;73;Casado(a);Sin dato;Sin dato;Sin dato;Ama de casa;Sin dato;Sin dato;Sin dato;Primaria;1;reincidencia violencia intrafamiliar;Daño psicológico;Sin dato;Sin dato;Sin dato;Sin dato;Sin dato;Las Palmas;#1014;10;Parque;Comisaría 10 - centro;Sin dato;Sin dato;Sin dato;Sin dato;Sin dato;Sin dato;Sin dato
2014-02-16 20:00:00;1.0;6.29778100000;-75.57764600000;Mujer;30;Casado(a);Sin dato;Sin dato;Sin dato;Ama de casa;Sin dato;Sin dato;Sin dato;Bachillerato;1;reincidencia violencia intrafamiliar;Física;Sin dato;Sin dato;Sin dato;Sin dato;Sin dato;Pedregal;#0604;6;Residencia;Comisaría 6 - 12 de octubre;Sin dato;Sin dato;Sin dato;Sin dato;Sin dato;Sin dato;Sin dato
2014-02-16 11:00:00;1.0;6.27726300000;-75.54882700000;Mujer;78;Unión marital de hecho;Sin dato;Sin dato;Sin dato;Ama de casa;Sin dato;Sin dato;Sin dato;Primaria;1;reincidencia violencia intrafamiliar;Daño psicológico;Sin dato;Sin dato;Sin dato;Sin dato;Sin dato;Las Granjas;#0302;3;Residencia;Comisaría 3 - manrique;Sin dato;Sin dato;Sin dato;Sin dato;Sin dato;Sin dato;Sin dato
2014-02-16 11:00:00;1.0;6.27726300000;-75.54882700000;Mujer;56;Casado(a);Sin dato;Sin dato;Sin dato;Ama de casa;Sin dato;Sin dato;Sin dato;Bachillerato;1;reincidencia violencia intrafamiliar;Daño psicológico;Sin dato;Sin dato;Sin dato;Sin dato;Sin dato;Las Granjas;#0302;3;Residencia;Comisaría 3 - manrique;Sin dato;Sin dato;Sin dato;Sin dato;Sin dato;Sin dato;Sin dato
2014-02-16 20:00:00;1.0;6.30693500000;-75.58023200000;Mujer;37;Casado(a);Sin dato;Sin dato;Sin dato;Asesor;Sin dato;Sin dato;Sin dato;Técnica;0;reincidencia violencia intrafamiliar;Daño psicológico;Sin dato;Sin dato;Sin dato;Sin dato;Sin dato;Doce de Octubre No.1;#0602;6;Residencia;Comisaría 6 - 12 de octubre;Sin dato;Sin dato;Sin dato;Sin dato;Sin dato;Sin dato;Sin dato
2014-02-16 22:00:00;1.0;6.28099700000;-75.54540800000;Mujer;39;Unión marital de hecho;Sin dato;Sin dato;Sin dato;Ama de casa;Sin dato;Sin dato;Sin dato;Primaria;1;reincidencia violencia intrafamiliar;Maltrato;Sin dato;Sin dato;Sin dato;Sin dato;Sin dato;Las Granjas;#0302;3;Residencia;Comisaría 3 - manrique;Sin dato;Sin dato;Sin dato;Sin dato;Sin dato;Sin dato;Sin dato
2014-02-16 04:00:00;1.0;6.27834600000;-75.56523700000;Mujer;24;Unión marital de hecho;Sin dato;Sin dato;Sin dato;Ama de casa;Sin dato;Sin dato;Sin dato;Primaria;0;reincidencia violencia intrafamiliar;Física;Sin dato;Sin dato;Sin dato;Sin dato;Sin dato;Moravia;#0405;4;Residencia;Comisaría 4 - campo valdés;Sin dato;Sin dato;Sin dato;Sin dato;Sin dato;Sin dato;Sin dato
2014-02-17 01:00:00;1.0;6.28645400000;-75.57272800000;Mujer;44;Viudo(a);Sin dato;Sin dato;Sin dato;Ama de casa;Sin dato;Sin dato;Sin dato;Primaria;0;reincidencia violencia intrafamiliar;Física;Sin dato;Sin dato;Sin dato;Sin dato;Sin dato;Francisco Antonio Zea;#0513;5;Residencia;Comisaría 5 - castilla;Sin dato;Sin dato;Sin dato;Sin dato;Sin dato;Sin dato;Sin dato
2014-02-18 20:00:00;1.0;NaN;NaN;Mujer;43;Unión marital de hecho;Sin dato;Sin dato;Sin dato;Administrador;Sin dato;Sin dato;Sin dato;Técnica;1;reincidencia violencia intrafamiliar;Maltrato;Sin dato;Sin dato;Sin dato;Sin dato;Sin dato;Belén;#1603;16;Residencia;Comisaría 16 - belén;Sin dato;Sin dato;Sin dato;Sin dato;Sin dato;Sin dato;Sin dato
2014-02-18 20:00:00;1.0;NaN;NaN;Hombre;18;Soltero(a);Sin dato;Sin dato;Sin dato;Estudiante;Sin dato;Sin dato;Sin dato;Universitario;1;reincidencia violencia intrafamiliar;Maltrato;Sin dato;Sin dato;Sin dato;Sin dato;Sin dato;Belén;#1603;16;Residencia;Comisaría 16 - belén;Sin dato;Sin dato;Sin dato;Sin dato;Sin dato;Sin dato;Sin dato
2014-02-18 14:00:00;1.0;6.26483300000;-75.54945000000;Mujer;41;Unión marital de hecho;Sin dato;Sin dato;Sin dato;Ama de casa;Sin dato;Sin dato;Sin dato;Primaria;0;reincidencia violencia intrafamiliar;Maltrato;Sin dato;Sin dato;Sin dato;Sin dato;Sin dato;Manrique Oriental;#0308;3;Residencia;Comisaría 3 - manrique;Sin dato;Sin dato;Sin dato;Sin dato;Sin dato;Sin dato;Sin dato
2014-02-19 18:00:00;1.0;NaN;NaN;Hombre;66;Casado(a);Sin dato;Sin dato;Sin dato;Reciclador;Sin dato;Sin dato;Sin dato;Primaria;1;reincidencia violencia intrafamiliar;Daño psicológico;Sin dato;Sin dato;Sin dato;Sin dato;Sin dato;Llanaditas;#0806;8;Residencia;Comisaría 8 - villa hermosa;Sin dato;Sin dato;Sin dato;Sin dato;Sin dato;Sin dato;Sin dato
2014-02-20 20:00:00;1.0;6.27574900000;-75.56453100000;Hombre;80;Casado(a);Sin dato;Sin dato;Sin dato;Sin dato;Sin dato;Sin dato;Sin dato;Primaria;0;reincidencia violencia intrafamiliar;Daño psicológico;Sin dato;Sin dato;Sin dato;Sin dato;Sin dato;Moravia;#0405;4;Residencia;Permanencia 1 el bosque;Sin dato;Sin dato;Sin dato;Sin dato;Sin dato;Sin dato;Sin dato
2014-02-20 20:00:00;1.0;6.27574900000;-75.56453100000;Mujer;69;Casado(a);Sin dato;Sin dato;Sin dato;Ama de casa;Sin dato;Sin dato;Sin dato;Primaria;0;reincidencia violencia intrafamiliar;Daño psicológico;Sin dato;Sin dato;Sin dato;Sin dato;Sin dato;Moravia;#0405;4;Residencia;Permanencia 1 el bosque;Sin dato;Sin dato;Sin dato;Sin dato;Sin dato;Sin dato;Sin dato
2014-02-20 21:00:00;1.0;6.20582400000;-75.58479600000;Mujer;26;Soltero(a);Sin dato;Sin dato;Sin dato;Docente;Sin dato;Sin dato;Sin dato;Universitario;1;reincidencia violencia intrafamiliar;Daño psicológico;Sin dato;Sin dato;Sin dato;Sin dato;Sin dato;Cristo Rey;#1509;15;Residencia;Comisaría 15 - guayabal;Sin dato;Sin dato;Sin dato;Sin dato;Sin dato;Sin dato;Sin dato
2014-02-21 18:00:00;1.0;6.29408800000;-75.57519800000;Mujer;35;Unión marital de hecho;Sin dato;Sin dato;Sin dato;Sin dato;Sin dato;Sin dato;Sin dato;Bachillerato;1;reincidencia violencia intrafamiliar;Daño psicológico;Sin dato;Sin dato;Objeto contundente;Sin dato;Sin dato;La Esperanza;#0605;6;Residencia;Permanencia 1 el bosque;Sin dato;Sin dato;Sin dato;Sin dato;Sin dato;Sin dato;Sin dato
2014-02-22 11:00:00;1.0;NaN;NaN;Mujer;32;Unión marital de hecho;Sin dato;Sin dato;Sin dato;Docente;Sin dato;Sin dato;Sin dato;Universitario;1;reincidencia violencia intrafamiliar;Física;Sin dato;Sin dato;Sin dato;Sin dato;Sin dato;Enciso;#0808;8;Residencia;Permanencia 1 el bosque;Sin dato;Sin dato;Sin dato;Sin dato;Sin dato;Sin dato;Sin dato
2014-02-22 00:00:00;1.0;NaN;NaN;Mujer;61;Soltero(a);Sin dato;Sin dato;Sin dato;Ama de casa;Sin dato;Sin dato;Sin dato;Primaria;1;reincidencia violencia intrafamiliar;Sin dato;Sin dato;Sin dato;Sin dato;Sin dato;Sin dato;Sin dato 60 San Cristobal;SIN DATO 60 SAN CRISTOBAL;60;Residencia;Comisaría san cristobal;Sin dato;Sin dato;Sin dato;Sin dato;Sin dato;Sin dato;Sin dato
2014-02-22 22:00:00;1.0;NaN;NaN;Mujer;38;Soltero(a);Sin dato;Sin dato;Sin dato;Comerciante;Sin dato;Sin dato;Sin dato;Primaria;1;reincidencia violencia intrafamiliar;Maltrato;Sin dato;Sin dato;Arma cortopunzante;Sin dato;Sin dato;San José la Cima No.1;#0314;3;Residencia;Comisaría 3 - manrique;Sin dato;Sin dato;Sin dato;Sin dato;Sin dato;Sin dato;Sin dato
2014-02-22 08:00:00;1.0;6.24814000000;-75.59468200000;Mujer;18;Soltero(a);Sin dato;Sin dato;Sin dato;Estudiante;Sin dato;Sin dato;Sin dato;Bachillerato;1;reincidencia violencia intrafamiliar;Daño psicológico;Sin dato;Sin dato;Objeto contundente;Sin dato;Sin dato;Lorena;#1111;11;Residencia;Permanencia 1 el bosque;Sin dato;Sin dato;Sin dato;Sin dato;Sin dato;Sin dato;Sin dato
2014-02-22 13:00:00;1.0;6.23449200000;-75.61398500000;Mujer;66;Casado(a);Sin dato;Sin dato;Sin dato;Ama de casa;Sin dato;Sin dato;Sin dato;Sin dato;1;reincidencia violencia intrafamiliar;Maltrato;Sin dato;Sin dato;Arma cortopunzante;Sin dato;Sin dato;Las Violetas;#1616;16;Residencia;Permanencia 1 el bosque;Sin dato;Sin dato;Sin dato;Sin dato;Sin dato;Sin dato;Sin dato
2014-02-22 13:00:00;1.0;6.23449200000;-75.61398500000;Mujer;63;Casado(a);Sin dato;Sin dato;Sin dato;Sin dato;Sin dato;Sin dato;Sin dato;Bachillerato;1;reincidencia violencia intrafamiliar;Maltrato;Sin dato;Sin dato;Arma cortopunzante;Sin dato;Sin dato;Las Violetas;#1616;16;Residencia;Permanencia 1 el bosque;Sin dato;Sin dato;Sin dato;Sin dato;Sin dato;Sin dato;Sin dato
2014-02-22 22:00:00;1.0;6.28053300000;-75.55697800000;Mujer;68;Viudo(a);Sin dato;Sin dato;Sin dato;Ama de casa;Sin dato;Sin dato;Sin dato;Primaria;1;reincidencia violencia intrafamiliar;Daño psicológico;Sin dato;Sin dato;Sin dato;Sin dato;Sin dato;La Piñuela;#0412;4;Residencia;Permanencia 1 el bosque;Sin dato;Sin dato;Sin dato;Sin dato;Sin dato;Sin dato;Sin dato
2014-02-23 00:00:00;1.0;NaN;NaN;Mujer;20;Soltero(a);Sin dato;Sin dato;Sin dato;Ama de casa;Sin dato;Sin dato;Sin dato;Bachillerato;1;reincidencia violencia intrafamiliar;Sin dato;Sin dato;Sin dato;Sin dato;Sin dato;Sin dato;Sin dato 60 San Cristobal;SIN DATO 60 SAN CRISTOBAL;60;Residencia;Comisaría san cristobal;Sin dato;Sin dato;Sin dato;Sin dato;Sin dato;Sin dato;Sin dato
2014-02-23 03:00:00;1.0;6.28883700000;-75.59450600000;Mujer;35;Soltero(a);Sin dato;Sin dato;Sin dato;Sin dato;Sin dato;Sin dato;Sin dato;Bachillerato;1;reincidencia violencia intrafamiliar;Sexual;Sin dato;Sin dato;Objeto contundente;Sin dato;Sin dato;Aures No.1;#0713;7;Residencia;Permanencia 1 el bosque;Sin dato;Sin dato;Sin dato;Sin dato;Sin dato;Sin dato;Sin dato
2014-02-23 03:00:00;1.0;6.28883700000;-75.59450600000;Mujer;20;Soltero(a);Sin dato;Sin dato;Sin dato;Estudiante;Sin dato;Sin dato;Sin dato;Bachillerato;1;reincidencia violencia intrafamiliar;Sexual;Sin dato;Sin dato;Objeto contundente;Sin dato;Sin dato;Aures No.1;#0713;7;Residencia;Permanencia 1 el bosque;Sin dato;Sin dato;Sin dato;Sin dato;Sin dato;Sin dato;Sin dato
2014-02-23 17:00:00;1.0;6.26982400000;-75.54598100000;Mujer;31;Soltero(a);Sin dato;Sin dato;Sin dato;Sin dato;Sin dato;Sin dato;Sin dato;Técnica;0;reincidencia violencia intrafamiliar;Maltrato;Sin dato;Sin dato;Sin dato;Sin dato;Sin dato;El Raizal;#0305;3;Vía pública;Comisaría 3 - manrique;Sin dato;Sin dato;Sin dato;Sin dato;Sin dato;Sin dato;Sin dato
2014-02-24 19:00:00;1.0;6.24994600000;-75.61970900000;Mujer;35;Casado(a);Sin dato;Sin dato;Sin dato;Ama de casa;Sin dato;Sin dato;Sin dato;Bachillerato;1;reincidencia violencia intrafamiliar;Daño psicológico;Sin dato;Sin dato;Sin dato;Sin dato;Sin dato;Veinte de Julio;#1310;13;Residencia;Comisaría 13 - san javier;Sin dato;Sin dato;Sin dato;Sin dato;Sin dato;Sin dato;Sin dato
2014-02-25 16:00:00;1.0;NaN;NaN;Mujer;33;Soltero(a);Sin dato;Sin dato;Sin dato;Asesor;Sin dato;Sin dato;Sin dato;Universitario;1;reincidencia violencia intrafamiliar;Daño psicológico;Sin dato;Sin dato;Sin dato;Sin dato;Sin dato;Belén;#1603;16;Vía pública;Comisaría 16 - belén;Sin dato;Sin dato;Sin dato;Sin dato;Sin dato;Sin dato;Sin dato
2014-02-25 17:00:00;1.0;6.27514100000;-75.54946900000;Hombre;54;Soltero(a);Sin dato;Sin dato;Sin dato;Desempleado;Sin dato;Sin dato;Sin dato;Bachillerato;1;reincidencia violencia intrafamiliar;Maltrato;Sin dato;Sin dato;Sin dato;Sin dato;Sin dato;Campo Valdés No.2;#0303;3;Residencia;Comisaría 3 - manrique;Sin dato;Sin dato;Sin dato;Sin dato;Sin dato;Sin dato;Sin dato
2014-02-26 13:00:00;1.0;NaN;NaN;Mujer;76;Sin dato;Sin dato;Sin dato;Sin dato;Ama de casa;Sin dato;Sin dato;Sin dato;Primaria;0;reincidencia violencia intrafamiliar;Daño psicológico;Sin dato;Sin dato;Sin dato;Sin dato;Sin dato;Miranda;#0415;4;Residencia;Permanencia 1 el bosque;Sin dato;Sin dato;Sin dato;Sin dato;Sin dato;Sin dato;Sin dato
2014-02-26 00:00:00;1.0;6.27729800000;-75.63539800000;Mujer;50;Casado(a);Sin dato;Sin dato;Sin dato;Sin dato;Sin dato;Sin dato;Sin dato;Universitario;1;reincidencia violencia intrafamiliar;Sin dato;Sin dato;Sin dato;Sin dato;Sin dato;Sin dato;Área Urbana Cgto. San Cristóbal;#AUC1;60;Residencia;Comisaría san cristobal;Sin dato;Sin dato;Sin dato;Sin dato;Sin dato;Sin dato;Sin dato
2014-02-26 15:00:00;1.0;6.24363400000;-75.55845400000;Mujer;41;Unión marital de hecho;Sin dato;Sin dato;Sin dato;Sin dato;Sin dato;Sin dato;Sin dato;Bachillerato;1;reincidencia violencia intrafamiliar;Maltrato;Sin dato;Sin dato;Sin dato;Sin dato;Sin dato;Bomboná No.1;#1015;10;Vía pública;Comisaría 9 - bueno aires;Sin dato;Sin dato;Sin dato;Sin dato;Sin dato;Sin dato;Sin dato
2014-02-26 20:00:00;1.0;6.23249800000;-75.60969400000;Mujer;33;Unión marital de hecho;Sin dato;Sin dato;Sin dato;Ama de casa;Sin dato;Sin dato;Sin dato;Bachillerato;0;reincidencia violencia intrafamiliar;Daño psicológico;Sin dato;Sin dato;Sin dato;Sin dato;Sin dato;Los Alpes;#1615;16;Residencia;Permanencia 3 belen;Sin dato;Sin dato;Sin dato;Sin dato;Sin dato;Sin dato;Sin dato
2014-02-26 16:00:00;1.0;6.24094700000;-75.59482000000;Mujer;45;Casado(a);Sin dato;Sin dato;Sin dato;Asesor;Sin dato;Sin dato;Sin dato;Bachillerato;1;reincidencia violencia intrafamiliar;Daño psicológico;Sin dato;Sin dato;Sin dato;Sin dato;Sin dato;Laureles;#1108;11;Residencia;Comisaría 11 - floresta;Sin dato;Sin dato;Sin dato;Sin dato;Sin dato;Sin dato;Sin dato
2014-02-26 02:00:00;1.0;6.30924100000;-75.57870000000;Mujer;60;Divorciado(a);Sin dato;Sin dato;Sin dato;Ama de casa;Sin dato;Sin dato;Sin dato;Primaria;1;reincidencia violencia intrafamiliar;Maltrato;Sin dato;Sin dato;Sin dato;Sin dato;Sin dato;Doce de Octubre No.1;#0602;6;Residencia;Permanencia 1 el bosque;Sin dato;Sin dato;Sin dato;Sin dato;Sin dato;Sin dato;Sin dato
2014-02-26 02:00:00;1.0;6.30924100000;-75.57870000000;Mujer;11;Soltero(a);Sin dato;Sin dato;Sin dato;Estudiante;Sin dato;Sin dato;Sin dato;Bachillerato;1;reincidencia violencia intrafamiliar;Maltrato;Sin dato;Sin dato;Sin dato;Sin dato;Sin dato;Doce de Octubre No.1;#0602;6;Residencia;Permanencia 1 el bosque;Sin dato;Sin dato;Sin dato;Sin dato;Sin dato;Sin dato;Sin dato
2014-02-27 00:00:00;1.0;6.27907700000;-75.63962300000;Mujer;34;Unión marital de hecho;Sin dato;Sin dato;Sin dato;Sin dato;Sin dato;Sin dato;Sin dato;Bachillerato;0;reincidencia violencia intrafamiliar;Sin dato;Sin dato;Sin dato;Sin dato;Sin dato;Sin dato;Área Urbana Cgto. San Cristóbal;#AUC1;60;Residencia;Comisaría san cristobal;Sin dato;Sin dato;Sin dato;Sin dato;Sin dato;Sin dato;Sin dato
2014-02-28 19:00:00;1.0;6.30673900000;-75.55819700000;Hombre;47;Unión marital de hecho;Sin dato;Sin dato;Sin dato;Conductor;Sin dato;Sin dato;Sin dato;Bachillerato;0;reincidencia violencia intrafamiliar;Daño psicológico;Sin dato;Sin dato;Sin dato;Sin dato;Sin dato;Toscana;#0501;5;Vía pública;Permanencia 1 el bosque;Sin dato;Sin dato;Sin dato;Sin dato;Sin dato;Sin dato;Sin dato
2014-03-01 16:00:00;1.0;NaN;NaN;Hombre;35;Soltero(a);Sin dato;Sin dato;Sin dato;Administrador;Sin dato;Sin dato;Sin dato;Bachillerato;1;reincidencia violencia intrafamiliar;Daño psicológico;Sin dato;Sin dato;Sin dato;Sin dato;Sin dato;Robledo;#0717;7;Almacén tienda y otro;Comisaría 7 - comuna siete;Sin dato;Sin dato;Sin dato;Sin dato;Sin dato;Sin dato;Sin dato
2014-03-01 21:00:00;1.0;NaN;NaN;Mujer;23;Soltero(a);Sin dato;Sin dato;Sin dato;Ama de casa;Sin dato;Sin dato;Sin dato;Primaria;1;reincidencia violencia intrafamiliar;Daño psicológico;Sin dato;Sin dato;Sin dato;Sin dato;Sin dato;Sin dato;SIN DATO;SIN DATO;Residencia;Permanencia 1 el bosque;Sin dato;Sin dato;Sin dato;Sin dato;Sin dato;Sin dato;Sin dato
2014-03-02 00:00:00;1.0;NaN;NaN;Mujer;43;Soltero(a);Sin dato;Sin dato;Sin dato;Ama de casa;Sin dato;Sin dato;Sin dato;Bachillerato;1;reincidencia violencia intrafamiliar;Sin dato;Sin dato;Sin dato;Sin dato;Sin dato;Sin dato;Sin dato 60 San Cristobal;SIN DATO 60 SAN CRISTOBAL;60;Residencia;Comisaría san cristobal;Sin dato;Sin dato;Sin dato;Sin dato;Sin dato;Sin dato;Sin dato
2014-03-02 18:00:00;1.0;NaN;NaN;Hombre;54;Soltero(a);Sin dato;Sin dato;Sin dato;Estudiante;Sin dato;Sin dato;Sin dato;Técnica;0;reincidencia violencia intrafamiliar;Daño psicológico;Sin dato;Sin dato;Sin dato;Sin dato;Sin dato;Sin dato 70 Altavista;SIN DATO 70 ALTAVISTA;70;Residencia;Comisaría altavista;Sin dato;Sin dato;Sin dato;Sin dato;Sin dato;Sin dato;Sin dato
2014-03-02 11:00:00;1.0;6.27427900000;-75.56649500000;Mujer;42;Unión marital de hecho;Sin dato;Sin dato;Sin dato;Sin dato;Sin dato;Sin dato;Sin dato;Primaria;1;reincidencia violencia intrafamiliar;Física;Sin dato;Sin dato;Sin dato;Sin dato;Sin dato;Moravia;#0405;4;Residencia;Permanencia 1 el bosque;Sin dato;Sin dato;Sin dato;Sin dato;Sin dato;Sin dato;Sin dato
2014-03-02 00:00:00;1.0;6.27185500000;-75.62934400000;Mujer;50;Casado(a);Sin dato;Sin dato;Sin dato;Sin dato;Sin dato;Sin dato;Sin dato;Bachillerato;1;reincidencia violencia intrafamiliar;Daño psicológico;Sin dato;Sin dato;Sin dato;Sin dato;Sin dato;La Loma;#6014;60;Residencia;Comisaría san cristobal;Sin dato;Sin dato;Sin dato;Sin dato;Sin dato;Sin dato;Sin dato
2014-03-02 23:00:00;1.0;6.27215000000;-75.55977600000;Mujer;29;Casado(a);Sin dato;Sin dato;Sin dato;Sin dato;Sin dato;Sin dato;Sin dato;Especialización;0;reincidencia violencia intrafamiliar;Otra;Sin dato;Sin dato;Sin dato;Sin dato;Sin dato;Brasilia;#0414;4;Residencia;Comisaría 4 - campo valdés;Sin dato;Sin dato;Sin dato;Sin dato;Sin dato;Sin dato;Sin dato
2014-03-02 21:00:00;1.0;6.29882900000;-75.57495400000;Hombre;58;Soltero(a);Sin dato;Sin dato;Sin dato;Sin dato;Sin dato;Sin dato;Sin dato;Primaria;1;reincidencia violencia intrafamiliar;Daño psicológico;Sin dato;Sin dato;Sin dato;Sin dato;Sin dato;Pedregal;#0604;6;Residencia;Comisaría 6 - 12 de octubre;Sin dato;Sin dato;Sin dato;Sin dato;Sin dato;Sin dato;Sin dato
2014-03-02 16:00:00;1.0;6.30951300000;-75.57632700000;Mujer;31;Casado(a);Sin dato;Sin dato;Sin dato;Asesor;Sin dato;Sin dato;Sin dato;Universitario;1;reincidencia violencia intrafamiliar;Daño psicológico;Sin dato;Sin dato;Sin dato;Sin dato;Sin dato;Doce de Octubre No.1;#0602;6;Residencia;Comisaría 7 - comuna siete;Sin dato;Sin dato;Sin dato;Sin dato;Sin dato;Sin dato;Sin dato
2014-03-02 12:00:00;1.0;6.24997200000;-75.60278900000;Mujer;34;Soltero(a);Sin dato;Sin dato;Sin dato;Docente;Sin dato;Sin dato;Sin dato;Universitario;0;reincidencia violencia intrafamiliar;Maltrato;Sin dato;Sin dato;Sin dato;Sin dato;Sin dato;La América;#1204;12;Vía pública;Comisaría 12 - santa mónica;Sin dato;Sin dato;Sin dato;Sin dato;Sin dato;Sin dato;Sin dato
2014-03-02 19:00:00;1.0;6.24726100000;-75.62058800000;Hombre;18;Soltero(a);Sin dato;Sin dato;Sin dato;Sin dato;Sin dato;Sin dato;Sin dato;Bachillerato;1;reincidencia violencia intrafamiliar;Daño psicológico;Sin dato;Sin dato;Sin dato;Sin dato;Sin dato;Betania;#1312;13;Residencia;Comisaría 13 - san javier;Sin dato;Sin dato;Sin dato;Sin dato;Sin dato;Sin dato;Sin dato
2014-03-02 19:00:00;1.0;6.24726100000;-75.62058800000;Mujer;46;Casado(a);Sin dato;Sin dato;Sin dato;Sin dato;Sin dato;Sin dato;Sin dato;Bachillerato;1;reincidencia violencia intrafamiliar;Daño psicológico;Sin dato;Sin dato;Sin dato;Sin dato;Sin dato;Betania;#1312;13;Residencia;Comisaría 13 - san javier;Sin dato;Sin dato;Sin dato;Sin dato;Sin dato;Sin dato;Sin dato
2014-03-04 02:00:00;1.0;NaN;NaN;Mujer;50;Soltero(a);Sin dato;Sin dato;Sin dato;Ama de casa;Sin dato;Sin dato;Sin dato;Bachillerato;1;reincidencia violencia intrafamiliar;Física;Sin dato;Sin dato;Sin dato;Sin dato;Sin dato;Santa Inés;#0304;3;Residencia;Comisaría 3 - manrique;Sin dato;Sin dato;Sin dato;Sin dato;Sin dato;Sin dato;Sin dato
2014-03-04 05:00:00;1.0;6.28762400000;-75.57399300000;Mujer;66;Casado(a);Sin dato;Sin dato;Sin dato;Ama de casa;Sin dato;Sin dato;Sin dato;Primaria;0;reincidencia violencia intrafamiliar;Física;Sin dato;Sin dato;Sin dato;Sin dato;Sin dato;Castilla;#0511;5;Residencia;Comisaría 5 - castilla;Sin dato;Sin dato;Sin dato;Sin dato;Sin dato;Sin dato;Sin dato
2014-03-04 13:00:00;1.0;6.20181100000;-75.58279300000;Mujer;28;Soltero(a);Sin dato;Sin dato;Sin dato;Ama de casa;Sin dato;Sin dato;Sin dato;Bachillerato;0;reincidencia violencia intrafamiliar;Daño psicológico;Sin dato;Sin dato;Sin dato;Sin dato;Sin dato;Guayabal;#1510;15;Residencia;Comisaría 15 - guayabal;Sin dato;Sin dato;Sin dato;Sin dato;Sin dato;Sin dato;Sin dato
2014-03-05 15:00:00;1.0;NaN;NaN;Mujer;41;Casado(a);Sin dato;Sin dato;Sin dato;Sin dato;Sin dato;Sin dato;Sin dato;Bachillerato;1;reincidencia violencia intrafamiliar;Maltrato;Sin dato;Sin dato;Sin dato;Sin dato;Sin dato;Boston;#1016;10;Vía pública;Comisaría 9 - bueno aires;Sin dato;Sin dato;Sin dato;Sin dato;Sin dato;Sin dato;Sin dato
2014-03-05 18:00:00;1.0;NaN;NaN;Mujer;36;Unión marital de hecho;Sin dato;Sin dato;Sin dato;Ama de casa;Sin dato;Sin dato;Sin dato;Técnica;1;reincidencia violencia intrafamiliar;Daño psicológico;Sin dato;Sin dato;Sin dato;Sin dato;Sin dato;Belén;#1603;16;Residencia;Comisaría 16 - belén;Sin dato;Sin dato;Sin dato;Sin dato;Sin dato;Sin dato;Sin dato
2014-03-05 21:00:00;1.0;6.25037400000;-75.59229000000;Mujer;31;Casado(a);Sin dato;Sin dato;Sin dato;Ama de casa;Sin dato;Sin dato;Sin dato;Técnica;1;reincidencia violencia intrafamiliar;Daño psicológico;Sin dato;Sin dato;Sin dato;Sin dato;Sin dato;Florida Nueva;#1117;11;Almacén tienda y otro;Comisaría 11 - floresta;Sin dato;Sin dato;Sin dato;Sin dato;Sin dato;Sin dato;Sin dato
2014-03-06 13:00:00;1.0;NaN;NaN;Mujer;23;Unión marital de hecho;Sin dato;Sin dato;Sin dato;Ama de casa;Sin dato;Sin dato;Sin dato;Bachillerato;0;reincidencia violencia intrafamiliar;Física;Sin dato;Sin dato;Sin dato;Sin dato;Sin dato;Florencia;#0503;5;Residencia;Comisaría 5 - castilla;Sin dato;Sin dato;Sin dato;Sin dato;Sin dato;Sin dato;Sin dato
